{
"type": "FeatureCollection",
"name": "cities",
"crs": { "type": "name", "properties": { "name": "urn:ogc:def:crs:OGC:1.3:CRS84" } },
"features": [
{ "type": "Feature", "properties": { "NAME": "Myingyan" },    "geometry": { "type": "Point", "coordinates": [ 95.3914, 21.4618 ] } },
{ "type": "Feature", "properties": { "NAME": "Letpadan" },    "geometry": { "type": "Point", "coordinates": [ 95.7415, 17.7819 ] } },
{ "type": "Feature", "properties": { "NAME": "Taungoo" },     "geometry": { "type": "Point", "coordinates": [ 96.4179, 18.9483 ] } },
{ "type": "Feature", "properties": { "NAME": "Thongwa" },     "geometry": { "type": "Point", "coordinates": [ 96.5193, 16.7547 ] } },
{ "type": "Feature", "properties": { "NAME": "Mudon" },       "geometry": { "type": "Point", "coordinates": [ 97.7215, 16.2618 ] } },
{ "type": "Feature", "properties": { "NAME": "Ye" },          "geometry": { "type": "Point", "coordinates": [ 97.8679, 15.2533 ] } },
{ "type": "Feature", "properties": { "NAME": "Mawlamyine" },  "geometry": { "type": "Point", "coordinates": [ 97.6700, 16.5004 ] } },
{ "type": "Feature", "properties": { "NAME": "Kyaukphyu" },   "geometry": { "type": "Point", "coordinates": [ 93.5494, 19.4290 ] } },
{ "type": "Feature", "properties": { "NAME": "Wakema" },      "geometry": { "type": "Point", "coordinates": [ 95.1829, 16.6133 ] } },
{ "type": "Feature", "properties": { "NAME": "Labutta" },     "geometry": { "type": "Point", "coordinates": [ 94.7014, 16.1619 ] } },
{ "type": "Feature", "properties": { "NAME": "Phyarpon" },    "geometry": { "type": "Point", "coordinates": [ 95.6829, 16.2933 ] } },
{ "type": "Feature", "properties": { "NAME": "Yandoon" },     "geometry": { "type": "Point", "coordinates": [ 95.6429, 17.0433 ] } },
{ "type": "Feature", "properties": { "NAME": "Hinthada" },    "geometry": { "type": "Point", "coordinates": [ 95.4679, 17.6483 ] } },
{ "type": "Feature", "properties": { "NAME": "Pathein" },     "geometry": { "type": "Point", "coordinates": [ 94.7500, 16.7704 ] } },
{ "type": "Feature", "properties": { "NAME": "Allanmyo" },    "geometry": { "type": "Point", "coordinates": [ 95.2279, 19.3783 ] } },
{ "type": "Feature", "properties": { "NAME": "Yaynangyoung" },"geometry": { "type": "Point", "coordinates": [ 94.8810, 20.4615 ] } },
{ "type": "Feature", "properties": { "NAME": "Chauk" },       "geometry": { "type": "Point", "coordinates": [ 94.8230, 20.9085 ] } },
{ "type": "Feature", "properties": { "NAME": "Pakokku" },     "geometry": { "type": "Point", "coordinates": [ 95.0866, 21.3320 ] } },
{ "type": "Feature", "properties": { "NAME": "Namtu" },       "geometry": { "type": "Point", "coordinates": [ 97.3999, 23.0837 ] } },
{ "type": "Feature", "properties": { "NAME": "Dawei" },       "geometry": { "type": "Point", "coordinates": [ 98.1950, 14.0980 ] } },
{ "type": "Feature", "properties": { "NAME": "Shwebo" },      "geometry": { "type": "Point", "coordinates": [ 95.6929, 22.5783 ] } },
{ "type": "Feature", "properties": { "NAME": "Bago" },        "geometry": { "type": "Point", "coordinates": [ 96.5150, 17.3200 ] } },
{ "type": "Feature", "properties": { "NAME": "Pyu" },         "geometry": { "type": "Point", "coordinates": [ 96.4379, 18.4779 ] } },
{ "type": "Feature", "properties": { "NAME": "Pyay" },        "geometry": { "type": "Point", "coordinates": [ 95.2114, 18.8165 ] } },
{ "type": "Feature", "properties": { "NAME": "Magway" },      "geometry": { "type": "Point", "coordinates": [ 94.9196, 20.1445 ] } },
{ "type": "Feature", "properties": { "NAME": "Myitkyina" },   "geometry": { "type": "Point", "coordinates": [ 97.3928, 25.3596 ] } },
{ "type": "Feature", "properties": { "NAME": "Monywa" },      "geometry": { "type": "Point", "coordinates": [ 95.1500, 22.1050 ] } },
{ "type": "Feature", "properties": { "NAME": "Myeik" },       "geometry": { "type": "Point", "coordinates": [ 98.6115, 12.4541 ] } },
{ "type": "Feature", "properties": { "NAME": "Mandalay" },    "geometry": { "type": "Point", "coordinates": [ 96.0831, 21.9719 ] } },
{ "type": "Feature", "properties": { "NAME": "Sittwe" },      "geometry": { "type": "Point", "coordinates": [ 92.8800, 20.1400 ] } },
{ "type": "Feature", "properties": { "NAME": "Naypyidaw" },   "geometry": { "type": "Point", "coordinates": [ 96.1167, 19.7685 ] } },
{ "type": "Feature", "properties": { "NAME": "Rangoon" },     "geometry": { "type": "Point", "coordinates": [ 96.1647, 16.7853 ] } },

{ "type": "Feature", "properties": { "NAME": "Lashio" },      "geometry": { "type": "Point", "coordinates": [ 97.7500, 22.9333 ] } },
{ "type": "Feature", "properties": { "NAME": "Kyaukme" },     "geometry": { "type": "Point", "coordinates": [ 97.0167, 22.5400 ] } },
{ "type": "Feature", "properties": { "NAME": "Mogok" },       "geometry": { "type": "Point", "coordinates": [ 96.5122, 22.9221 ] } },
{ "type": "Feature", "properties": { "NAME": "Namkham" },     "geometry": { "type": "Point", "coordinates": [ 97.7300, 23.8267 ] } },
{ "type": "Feature", "properties": { "NAME": "Kutkai" },      "geometry": { "type": "Point", "coordinates": [ 97.7333, 23.4500 ] } },
{ "type": "Feature", "properties": { "NAME": "Nawnghkio" },   "geometry": { "type": "Point", "coordinates": [ 97.0500, 22.9667 ] } },
{ "type": "Feature", "properties": { "NAME": "Mrauk-U" },     "geometry": { "type": "Point", "coordinates": [ 93.2000, 20.5900 ] } },
{ "type": "Feature", "properties": { "NAME": "Maungdaw" },    "geometry": { "type": "Point", "coordinates": [ 92.3600, 20.8183 ] } },
{ "type": "Feature", "properties": { "NAME": "Buthidaung" },  "geometry": { "type": "Point", "coordinates": [ 92.5300, 20.8667 ] } },
{ "type": "Feature", "properties": { "NAME": "Thandwe" },     "geometry": { "type": "Point", "coordinates": [ 94.3700, 18.4600 ] } },
{ "type": "Feature", "properties": { "NAME": "Ramree" },      "geometry": { "type": "Point", "coordinates": [ 93.8000, 19.0900 ] } },
{ "type": "Feature", "properties": { "NAME": "Taungup" },     "geometry": { "type": "Point", "coordinates": [ 94.2300, 18.9200 ] } },
{ "type": "Feature", "properties": { "NAME": "Hpapun" },      "geometry": { "type": "Point", "coordinates": [ 97.4500, 18.0700 ] } },
{ "type": "Feature", "properties": { "NAME": "Mindat" },      "geometry": { "type": "Point", "coordinates": [ 93.9200, 23.3700 ] } },
{ "type": "Feature", "properties": { "NAME": "Paletwa" },     "geometry": { "type": "Point", "coordinates": [ 92.8400, 21.4900 ] } },
{ "type": "Feature", "properties": { "NAME": "Matupi" },      "geometry": { "type": "Point", "coordinates": [ 93.4400, 22.0200 ] } },
{ "type": "Feature", "properties": { "NAME": "Tonzang" },     "geometry": { "type": "Point", "coordinates": [ 93.6400, 23.8800 ] } },
{ "type": "Feature", "properties": { "NAME": "Kanpetlet" },   "geometry": { "type": "Point", "coordinates": [ 93.9800, 21.1700 ] } },

{ "type": "Feature", "properties": { "NAME": "Shwepiyaye" },  "geometry": { "type": "Point", "coordinates": [ 94.6200, 24.0200 ] } },
{ "type": "Feature", "properties": { "NAME": "Khampat" },     "geometry": { "type": "Point", "coordinates": [ 94.0200, 23.5700 ] } },
{ "type": "Feature", "properties": { "NAME": "Maw Luu" },     "geometry": { "type": "Point", "coordinates": [ 96.0300, 25.1800 ] } },
{ "type": "Feature", "properties": { "NAME": "Pinlebu" },     "geometry": { "type": "Point", "coordinates": [ 95.4700, 23.9800 ] } },
{ "type": "Feature", "properties": { "NAME": "Myothit" },     "geometry": { "type": "Point", "coordinates": [ 95.3200, 22.5300 ] } },

{ "type": "Feature", "properties": { "NAME": "Cikha" },       "geometry": { "type": "Point", "coordinates": [ 93.0600, 21.8700 ] } },
{ "type": "Feature", "properties": { "NAME": "Rikhwardar" },  "geometry": { "type": "Point", "coordinates": [ 93.5300, 24.2100 ] } },
{ "type": "Feature", "properties": { "NAME": "Surkhua" },     "geometry": { "type": "Point", "coordinates": [ 93.3000, 22.6500 ] } },
{ "type": "Feature", "properties": { "NAME": "Lailempi" },    "geometry": { "type": "Point", "coordinates": [ 93.2800, 21.5600 ] } },
{ "type": "Feature", "properties": { "NAME": "Samee" },       "geometry": { "type": "Point", "coordinates": [ 93.0200, 22.0100 ] } },
{ "type": "Feature", "properties": { "NAME": "Waibula" },     "geometry": { "type": "Point", "coordinates": [ 93.2200, 22.5800 ] } },
{ "type": "Feature", "properties": { "NAME": "Rezua" },       "geometry": { "type": "Point", "coordinates": [ 93.3800, 22.5000 ] } },
{ "type": "Feature", "properties": { "NAME": "M'kuiimnu" },   "geometry": { "type": "Point", "coordinates": [ 93.9100, 23.3700 ] } },
{ "type": "Feature", "properties": { "NAME": "Hanring" },     "geometry": { "type": "Point", "coordinates": [ 93.2800, 22.6000 ] } },
{ "type": "Feature", "properties": { "NAME": "Kyindwe" },     "geometry": { "type": "Point", "coordinates": [ 93.0000, 21.5200 ] } },

{ "type": "Feature", "properties": { "NAME": "Mone" },        "geometry": { "type": "Point", "coordinates": [ 96.6900, 18.6200 ] } },
{ "type": "Feature", "properties": { "NAME": "Lay Kay Kaw" }, "geometry": { "type": "Point", "coordinates": [ 98.0600, 17.0000 ] } },
{ "type": "Feature", "properties": { "NAME": "Kyaikdon" },    "geometry": { "type": "Point", "coordinates": [ 98.1800, 16.5200 ] } },

{ "type": "Feature", "properties": { "NAME": "Moebye" },      "geometry": { "type": "Point", "coordinates": [ 97.4000, 19.8300 ] } },
{ "type": "Feature", "properties": { "NAME": "Nan Mei Khon" },"geometry": { "type": "Point", "coordinates": [ 97.2200, 19.3500 ] } },
{ "type": "Feature", "properties": { "NAME": "Ywar Thit" },   "geometry": { "type": "Point", "coordinates": [ 97.3200, 18.9800 ] } },
{ "type": "Feature", "properties": { "NAME": "Shadaw" },      "geometry": { "type": "Point", "coordinates": [ 97.0900, 19.3800 ] } },
{ "type": "Feature", "properties": { "NAME": "Mawchi" },      "geometry": { "type": "Point", "coordinates": [ 97.2100, 18.8100 ] } },
{ "type": "Feature", "properties": { "NAME": "Mese" },        "geometry": { "type": "Point", "coordinates": [ 97.8900, 17.8800 ] } },

{ "type": "Feature", "properties": { "NAME": "Sumprabum" },   "geometry": { "type": "Point", "coordinates": [ 97.5200, 26.7900 ] } },
{ "type": "Feature", "properties": { "NAME": "Chiphwe" },     "geometry": { "type": "Point", "coordinates": [ 98.6600, 25.8900 ] } },
{ "type": "Feature", "properties": { "NAME": "Sadon" },       "geometry": { "type": "Point", "coordinates": [ 97.8300, 25.9500 ] } },
{ "type": "Feature", "properties": { "NAME": "Myohla" },      "geometry": { "type": "Point", "coordinates": [ 97.0800, 25.4000 ] } },
{ "type": "Feature", "properties": { "NAME": "Kan Paik Ti" }, "geometry": { "type": "Point", "coordinates": [ 96.9200, 25.6100 ] } },
{ "type": "Feature", "properties": { "NAME": "Tsawlaw" },     "geometry": { "type": "Point", "coordinates": [ 97.3200, 26.1900 ] } },
{ "type": "Feature", "properties": { "NAME": "Sinbo" },       "geometry": { "type": "Point", "coordinates": [ 96.9200, 24.1300 ] } },
{ "type": "Feature", "properties": { "NAME": "Momauk" },      "geometry": { "type": "Point", "coordinates": [ 96.6500, 25.4600 ] } },
{ "type": "Feature", "properties": { "NAME": "Phimaw" },      "geometry": { "type": "Point", "coordinates": [ 98.3300, 27.0300 ] } },
{ "type": "Feature", "properties": { "NAME": "Pang War" },    "geometry": { "type": "Point", "coordinates": [ 98.0800, 26.2200 ] } },
{ "type": "Feature", "properties": { "NAME": "Dawthponyean" },"geometry": { "type": "Point", "coordinates": [ 96.3500, 24.2800 ] } },
{ "type": "Feature", "properties": { "NAME": "Lwegel" },      "geometry": { "type": "Point", "coordinates": [ 97.9200, 25.7100 ] } },
{ "type": "Feature", "properties": { "NAME": "Mansi" },       "geometry": { "type": "Point", "coordinates": [ 96.1200, 24.5200 ] } },

{ "type": "Feature", "properties": { "NAME": "Chinshwehaw" }, "geometry": { "type": "Point", "coordinates": [ 98.5800, 23.9300 ] } },
{ "type": "Feature", "properties": { "NAME": "Hpawngsheng" }, "geometry": { "type": "Point", "coordinates": [ 98.7600, 23.7900 ] } },
{ "type": "Feature", "properties": { "NAME": "Kyukoke" },     "geometry": { "type": "Point", "coordinates": [ 98.6300, 23.8300 ] } },
{ "type": "Feature", "properties": { "NAME": "Theinni" },     "geometry": { "type": "Point", "coordinates": [ 98.2100, 23.7200 ] } },
{ "type": "Feature", "properties": { "NAME": "Monekoe" },     "geometry": { "type": "Point", "coordinates": [ 97.9400, 23.7900 ] } },
{ "type": "Feature", "properties": { "NAME": "Kunlong" },     "geometry": { "type": "Point", "coordinates": [ 98.6400, 23.4400 ] } },
{ "type": "Feature", "properties": { "NAME": "Manhsan" },     "geometry": { "type": "Point", "coordinates": [ 98.9100, 23.0100 ] } },
{ "type": "Feature", "properties": { "NAME": "Mantong" },     "geometry": { "type": "Point", "coordinates": [ 97.8700, 23.1500 ] } },
{ "type": "Feature", "properties": { "NAME": "Hopang" },      "geometry": { "type": "Point", "coordinates": [ 99.1300, 22.4500 ] } },
{ "type": "Feature", "properties": { "NAME": "Panglong" },    "geometry": { "type": "Point", "coordinates": [ 99.0800, 22.4200 ] } },
{ "type": "Feature", "properties": { "NAME": "Kongeyan" },    "geometry": { "type": "Point", "coordinates": [ 97.6500, 23.2800 ] } },
{ "type": "Feature", "properties": { "NAME": "Monglon" },     "geometry": { "type": "Point", "coordinates": [ 98.1300, 22.8200 ] } },
{ "type": "Feature", "properties": { "NAME": "Mahein" },      "geometry": { "type": "Point", "coordinates": [ 96.4900, 24.5200 ] } },
{ "type": "Feature", "properties": { "NAME": "Mongmit" },     "geometry": { "type": "Point", "coordinates": [ 96.4400, 23.0700 ] } },
{ "type": "Feature", "properties": { "NAME": "Nyaphu" },      "geometry": { "type": "Point", "coordinates": [ 96.8200, 22.0100 ] } },

{ "type": "Feature", "properties": { "NAME": "Tagauging" },   "geometry": { "type": "Point", "coordinates": [ 96.1800, 23.5100 ] } },
{ "type": "Feature", "properties": { "NAME": "Thabeikkyin" }, "geometry": { "type": "Point", "coordinates": [ 96.0500, 23.2000 ] } },
{ "type": "Feature", "properties": { "NAME": "Singu" },       "geometry": { "type": "Point", "coordinates": [ 96.1400, 22.9000 ] } },

{ "type": "Feature", "properties": { "NAME": "Kanhtaunggyi" },"geometry": { "type": "Point", "coordinates": [ 93.8900, 19.8200 ] } },
{ "type": "Feature", "properties": { "NAME": "Ann" },         "geometry": { "type": "Point", "coordinates": [ 94.0300, 19.8300 ] } },
{ "type": "Feature", "properties": { "NAME": "Gwa" },         "geometry": { "type": "Point", "coordinates": [ 94.5800, 17.6000 ] } },
{ "type": "Feature", "properties": { "NAME": "Kha Maung Seik"},"geometry": { "type": "Point", "coordinates": [ 92.4400, 20.9100 ] } },
{ "type": "Feature", "properties": { "NAME": "Kyauktawn" },   "geometry": { "type": "Point", "coordinates": [ 93.0000, 20.0900 ] } },
{ "type": "Feature", "properties": { "NAME": "Minbya" },      "geometry": { "type": "Point", "coordinates": [ 93.2700, 20.1700 ] } },
{ "type": "Feature", "properties": { "NAME": "Myin Hlut" },   "geometry": { "type": "Point", "coordinates": [ 92.4200, 20.8400 ] } },
{ "type": "Feature", "properties": { "NAME": "Rathedaung" },  "geometry": { "type": "Point", "coordinates": [ 92.5600, 20.5000 ] } },
{ "type": "Feature", "properties": { "NAME": "Myebon" },      "geometry": { "type": "Point", "coordinates": [ 93.3700, 19.4100 ] } },
{ "type": "Feature", "properties": { "NAME": "Tat Taung" },   "geometry": { "type": "Point", "coordinates": [ 93.9500, 21.0300 ] } },
{ "type": "Feature", "properties": { "NAME": "Pauktaw" },     "geometry": { "type": "Point", "coordinates": [ 92.8700, 20.1300 ] } },
{ "type": "Feature", "properties": { "NAME": "Sane" },        "geometry": { "type": "Point", "coordinates": [ 93.5100, 20.3200 ] } },
{ "type": "Feature", "properties": { "NAME": "Tan Lwe Ywar Ma" },"geometry": { "type": "Point", "coordinates": [ 94.0200, 19.5000 ] } },
{ "type": "Feature", "properties": { "NAME": "Taungpyo" },    "geometry": { "type": "Point", "coordinates": [ 92.2800, 20.6200 ] } },
{ "type": "Feature", "properties": { "NAME": "Ponnaygun" },   "geometry": { "type": "Point", "coordinates": [ 93.0000, 20.5000 ] } },
{ "type": "Feature", "properties": { "NAME": "Maei" },        "geometry": { "type": "Point", "coordinates": [ 93.5200, 19.0200 ] } },
{ "type": "Feature", "properties": { "NAME": "Kyeintali" },   "geometry": { "type": "Point", "coordinates": [ 94.5200, 17.4800 ] } }
]
}
