{"type":"FeatureCollection","totalFeatures":494,"features":[{"type":"Feature","id":"mmr_pplp1_mimu250k.1","geometry":{"type":"Point","coordinates":[100.5508240699067,21.329759787341107]},"geometry_name":"the_geom","properties":{"SD_Pcode":"MMR016","State_Divi":"Shan (East)","D_Pcode":"MMR016D003","District":"Tachileik","TS_Pcode":"MMR016011","Township":"Mongyawng","Town_Pcode":"MMR016011702","Town":"Mongyu","Town_MMR4":"မိုင်းယု","Longitude":100.5508240699067,"Latitude":21.329759787341107,"Level":"Other Town","Source":"GAD, Mar 2015","Remark":""}},{"type":"Feature","id":"mmr_pplp1_mimu250k.2","geometry":{"type":"Point","coordinates":[100.534,20.867]},"geometry_name":"the_geom","properties":{"SD_Pcode":"MMR016","State_Divi":"Shan (East)","D_Pcode":"MMR016D003","District":"Tachileik","TS_Pcode":"MMR016009","Township":"Tachileik","Town_Pcode":"MMR016009702","Town":"Kenglat","Town_MMR4":"ကျိုင်းလပ်","Longitude":100.534,"Latitude":20.867,"Level":"Other Town","Source":"GAD, Mar 2015","Remark":""}},{"type":"Feature","id":"mmr_pplp1_mimu250k.3","geometry":{"type":"Point","coordinates":[100.35789714495627,21.18069821559767]},"geometry_name":"the_geom","properties":{"SD_Pcode":"MMR016","State_Divi":"Shan (East)","D_Pcode":"MMR016D003","District":"Tachileik","TS_Pcode":"MMR016011","Township":"Mongyawng","Town_Pcode":"MMR016011701","Town":"Mongyawng","Town_MMR4":"မိုင်းယောင်း","Longitude":100.35789714495627,"Latitude":21.18069821559767,"Level":"Main Town","Source":"GAD, Mar 2015","Remark":""}},{"type":"Feature","id":"mmr_pplp1_mimu250k.4","geometry":{"type":"Point","coordinates":[100.093069143,20.7126192543]},"geometry_name":"the_geom","properties":{"SD_Pcode":"MMR016","State_Divi":"Shan (East)","D_Pcode":"MMR016D003","District":"Tachileik","TS_Pcode":"MMR016009","Township":"Tachileik","Town_Pcode":"MMR016009703","Town":"Tarlay","Town_MMR4":"တာလေ","Longitude":100.093069143,"Latitude":20.7126192543,"Level":"Other Town","Source":"GAD, Mar 2015","Remark":""}},{"type":"Feature","id":"mmr_pplp1_mimu250k.5","geometry":{"type":"Point","coordinates":[100.01867,21.6729]},"geometry_name":"the_geom","properties":{"SD_Pcode":"MMR016","State_Divi":"Shan (East)","D_Pcode":"MMR016D001","District":"Kengtung","TS_Pcode":"MMR016005","Township":"Mongla","Town_Pcode":"MMR016005701","Town":"Mongla","Town_MMR4":"မိုင်းလား","Longitude":100.01867,"Latitude":21.6729,"Level":"Main Town","Source":"GAD, Mar 2015","Remark":""}},{"type":"Feature","id":"mmr_pplp1_mimu250k.6","geometry":{"type":"Point","coordinates":[99.92333,20.87804]},"geometry_name":"the_geom","properties":{"SD_Pcode":"MMR016","State_Divi":"Shan (East)","D_Pcode":"MMR016D003","District":"Tachileik","TS_Pcode":"MMR016010","Township":"Monghpyak","Town_Pcode":"MMR016010701","Town":"Monghpyak","Town_MMR4":"မိုင်းဖြတ်","Longitude":99.92333,"Latitude":20.87804,"Level":"Main Town","Source":"GAD, Mar 2015","Remark":""}},{"type":"Feature","id":"mmr_pplp1_mimu250k.7","geometry":{"type":"Point","coordinates":[99.88403,20.45304]},"geometry_name":"the_geom","properties":{"SD_Pcode":"MMR016","State_Divi":"Shan (East)","D_Pcode":"MMR016D003","District":"Tachileik","TS_Pcode":"MMR016009","Township":"Tachileik","Town_Pcode":"MMR016009701","Town":"Tachileik","Town_MMR4":"တာချီလိတ်","Longitude":99.88403,"Latitude":20.45304,"Level":"District Capital","Source":"GAD, Mar 2015","Remark":""}},{"type":"Feature","id":"mmr_pplp1_mimu250k.8","geometry":{"type":"Point","coordinates":[99.68711,21.84235]},"geometry_name":"the_geom","properties":{"SD_Pcode":"MMR016","State_Divi":"Shan (East)","D_Pcode":"MMR016D001","District":"Kengtung","TS_Pcode":"MMR016003","Township":"Mongyang","Town_Pcode":"MMR016003701","Town":"Mongyang","Town_MMR4":"မိုင်းယန်း","Longitude":99.68711,"Latitude":21.84235,"Level":"Main Town","Source":"GAD, Mar 2015","Remark":""}},{"type":"Feature","id":"mmr_pplp1_mimu250k.9","geometry":{"type":"Point","coordinates":[99.6036,21.29189]},"geometry_name":"the_geom","properties":{"SD_Pcode":"MMR016","State_Divi":"Shan (East)","D_Pcode":"MMR016D001","District":"Kengtung","TS_Pcode":"MMR016001","Township":"Kengtung","Town_Pcode":"MMR016001701","Town":"Kengtung","Town_MMR4":"ကျိုင်းတုံ","Longitude":99.6036,"Latitude":21.29189,"Level":"District Capital","Source":"GAD, Mar 2015","Remark":""}},{"type":"Feature","id":"mmr_pplp1_mimu250k.10","geometry":{"type":"Point","coordinates":[99.59892,21.98542]},"geometry_name":"the_geom","properties":{"SD_Pcode":"MMR016","State_Divi":"Shan (East)","D_Pcode":"MMR016D333","District":"Mong Pawk (Wa SAD)","TS_Pcode":"MMR016319","Township":"Mong Hpen","Town_Pcode":"MMR016319701","Town":"Mong Hpen","Town_MMR4":"မိုင်းဖျန်","Longitude":99.59892,"Latitude":21.98542,"Level":"Other Town","Source":"Field Sources","Remark":"Town not included in the GAD Gazette"}},{"type":"Feature","id":"mmr_pplp1_mimu250k.11","geometry":{"type":"Point","coordinates":[99.5506704369169,22.0414317333637]},"geometry_name":"the_geom","properties":{"SD_Pcode":"MMR016","State_Divi":"Shan (East)","D_Pcode":"MMR016D333","District":"Mong Pawk (Wa SAD)","TS_Pcode":"MMR016320","Township":"Ho Tawng (Ho Tao)","Town_Pcode":"MMR016320701","Town":"Ho Tawng (Ho Tao)","Town_MMR4":"ဟိုတောင်း","Longitude":99.5506704369169,"Latitude":22.0414317333637,"Level":"Other Town","Source":"Field Sources","Remark":"Town not included in the GAD Gazette"}},{"type":"Feature","id":"mmr_pplp1_mimu250k.12","geometry":{"type":"Point","coordinates":[99.4636009715,20.7404832998]},"geometry_name":"the_geom","properties":{"SD_Pcode":"MMR016","State_Divi":"Shan (East)","D_Pcode":"MMR016D002","District":"Monghsat","TS_Pcode":"MMR016006","Township":"Monghsat","Town_Pcode":"MMR016006702","Town":"Mongkhoke","Town_MMR4":"မိုင်းခုတ်","Longitude":99.4636009715,"Latitude":20.7404832998,"Level":"Other Town","Source":"GAD, Mar 2015","Remark":""}},{"type":"Feature","id":"mmr_pplp1_mimu250k.13","geometry":{"type":"Point","coordinates":[99.46377,21.7499]},"geometry_name":"the_geom","properties":{"SD_Pcode":"MMR016","State_Divi":"Shan (East)","D_Pcode":"MMR016D001","District":"Kengtung","TS_Pcode":"MMR016002","Township":"Mongkhet","Town_Pcode":"MMR016002701","Town":"Mongkhet","Town_MMR4":"မိုင်းခတ်","Longitude":99.46377,"Latitude":21.7499,"Level":"Main Town","Source":"GAD, Mar 2015","Remark":""}},{"type":"Feature","id":"mmr_pplp1_mimu250k.14","geometry":{"type":"Point","coordinates":[99.46016,22.9794]},"geometry_name":"the_geom","properties":{"SD_Pcode":"MMR015","State_Divi":"Shan (North)","D_Pcode":"MMR015D331","District":"Mong Maw (Wa SAD)","TS_Pcode":"MMR015306","Township":"Hkun Mar (Hkwin Ma)","Town_Pcode":"MMR015306701","Town":"Hkun Mar (Hkwin Ma)","Town_MMR4":"ခွန်းမား","Longitude":99.46016,"Latitude":22.9794,"Level":"Other Town","Source":"Field Sources","Remark":"Town not included in the GAD Gazette"}},{"type":"Feature","id":"mmr_pplp1_mimu250k.15","geometry":{"type":"Point","coordinates":[99.41942,21.84343]},"geometry_name":"the_geom","properties":{"SD_Pcode":"MMR016","State_Divi":"Shan (East)","D_Pcode":"MMR016D333","District":"Mong Pawk (Wa SAD)","TS_Pcode":"MMR016322","Township":"Mong Kar","Town_Pcode":"MMR016322701","Town":"Mong Kar","Town_MMR4":"မိုင်းကာ","Longitude":99.41942,"Latitude":21.84343,"Level":"Other Town","Source":"Field Sources","Remark":"Town not included in the GAD Gazette"}},{"type":"Feature","id":"mmr_pplp1_mimu250k.16","geometry":{"type":"Point","coordinates":[99.36871,22.90568]},"geometry_name":"the_geom","properties":{"SD_Pcode":"MMR015","State_Divi":"Shan (North)","D_Pcode":"MMR015D331","District":"Mong Maw (Wa SAD)","TS_Pcode":"MMR015307","Township":"Long Htan","Town_Pcode":"MMR015307701","Town":"Long Htan","Town_MMR4":"လုံထန်","Longitude":99.36871,"Latitude":22.90568,"Level":"Other Town","Source":"Field Sources","Remark":"Town not included in the GAD Gazette"}},{"type":"Feature","id":"mmr_pplp1_mimu250k.17","geometry":{"type":"Point","coordinates":[99.30908332637424,23.05627810462618]},"geometry_name":"the_geom","properties":{"SD_Pcode":"MMR015","State_Divi":"Shan (North)","D_Pcode":"MMR015D006","District":"Hopang","TS_Pcode":"MMR015007","Township":"Pangwaun","Town_Pcode":"MMR015007701","Town":"Pangwaun","Town_MMR4":"ပန်ဝိုင်","Longitude":99.30908332637424,"Latitude":23.05627810462618,"Level":"Main Town","Source":"Field Sources","Remark":"Town not included in the GAD Gazette"}},{"type":"Feature","id":"mmr_pplp1_mimu250k.18","geometry":{"type":"Point","coordinates":[99.31197,22.95939]},"geometry_name":"the_geom","properties":{"SD_Pcode":"MMR015","State_Divi":"Shan (North)","D_Pcode":"MMR015D331","District":"Mong Maw (Wa SAD)","TS_Pcode":"MMR015308","Township":"Yawng Lin","Town_Pcode":"MMR015308701","Town":"Yawng Lin","Town_MMR4":"ယောင်လင်း","Longitude":99.31197,"Latitude":22.95939,"Level":"Other Town","Source":"Field Sources","Remark":"Town not included in the GAD Gazette"}},{"type":"Feature","id":"mmr_pplp1_mimu250k.19","geometry":{"type":"Point","coordinates":[99.3101,22.0082]},"geometry_name":"the_geom","properties":{"SD_Pcode":"MMR016","State_Divi":"Shan (East)","D_Pcode":"MMR016D001","District":"Kengtung","TS_Pcode":"MMR016003","Township":"Mongyang","Town_Pcode":"MMR016003702","Town":"Mongpauk","Town_MMR4":"မိုင်းပေါက်","Longitude":99.3101,"Latitude":22.0082,"Level":"Other Town","Source":"GAD, Mar 2015","Remark":""}},{"type":"Feature","id":"mmr_pplp1_mimu250k.20","geometry":{"type":"Point","coordinates":[99.28781,21.33004]},"geometry_name":"the_geom","properties":{"SD_Pcode":"MMR016","State_Divi":"Shan (East)","D_Pcode":"MMR016D001","District":"Kengtung","TS_Pcode":"MMR016007","Township":"Mongping","Town_Pcode":"MMR016007702","Town":"Tontar","Town_MMR4":"တုံတာ","Longitude":99.28781,"Latitude":21.33004,"Level":"Other Town","Source":"GAD, Mar 2015","Remark":""}},{"type":"Feature","id":"mmr_pplp1_mimu250k.21","geometry":{"type":"Point","coordinates":[99.28307,22.62819]},"geometry_name":"the_geom","properties":{"SD_Pcode":"MMR015","State_Divi":"Shan (North)","D_Pcode":"MMR015D331","District":"Mong Maw (Wa SAD)","TS_Pcode":"MMR015312","Township":"Yin Pang","Town_Pcode":"MMR015312701","Town":"Yin Pang","Town_MMR4":"ရင်ဖန့်","Longitude":99.28307,"Latitude":22.62819,"Level":"Other Town","Source":"Field Sources","Remark":"Town not included in the GAD Gazette"}},{"type":"Feature","id":"mmr_pplp1_mimu250k.22","geometry":{"type":"Point","coordinates":[99.24724,20.50544]},"geometry_name":"the_geom","properties":{"SD_Pcode":"MMR016","State_Divi":"Shan (East)","D_Pcode":"MMR016D002","District":"Monghsat","TS_Pcode":"MMR016006","Township":"Monghsat","Town_Pcode":"MMR016006701","Town":"Monghsat","Town_MMR4":"မိုင်းဆတ်","Longitude":99.24724,"Latitude":20.50544,"Level":"District Capital","Source":"GAD, Mar 2015","Remark":""}},{"type":"Feature","id":"mmr_pplp1_mimu250k.23","geometry":{"type":"Point","coordinates":[99.22364801531158,23.084601984688423]},"geometry_name":"the_geom","properties":{"SD_Pcode":"MMR015","State_Divi":"Shan (North)","D_Pcode":"MMR015D331","District":"Mong Maw (Wa SAD)","TS_Pcode":"MMR015305","Township":"Hsawng Hpa (Saun Pha)","Town_Pcode":"MMR015305701","Town":"Hsawng Hpa (Saun Pha)","Town_MMR4":"ဆောင်ဖ","Longitude":99.22364801531158,"Latitude":23.084601984688423,"Level":"Other Town","Source":"Field Sources","Remark":"Town not included in the GAD Gazette"}},{"type":"Feature","id":"mmr_pplp1_mimu250k.24","geometry":{"type":"Point","coordinates":[99.22358,22.76395]},"geometry_name":"the_geom","properties":{"SD_Pcode":"MMR015","State_Divi":"Shan (North)","D_Pcode":"MMR015D331","District":"Mong Maw (Wa SAD)","TS_Pcode":"MMR015311","Township":"Aik Chan (Ai' Chun)","Town_Pcode":"MMR015311701","Town":"Aik Chan (Ai' Chun)","Town_MMR4":"အိုက်ချန်","Longitude":99.22358,"Latitude":22.76395,"Level":"Other Town","Source":"Field Sources","Remark":"Town not included in the GAD Gazette"}},{"type":"Feature","id":"mmr_pplp1_mimu250k.25","geometry":{"type":"Point","coordinates":[99.20034919150875,21.929056423848397]},"geometry_name":"the_geom","properties":{"SD_Pcode":"MMR016","State_Divi":"Shan (East)","D_Pcode":"MMR016D333","District":"Mong Pawk (Wa SAD)","TS_Pcode":"MMR016323","Township":"Nam Hpai","Town_Pcode":"MMR016323701","Town":"Nam Hpai","Town_MMR4":"နမ့်ဖိုင်","Longitude":99.20034919150875,"Latitude":21.929056423848397,"Level":"Other Town","Source":"Field Sources","Remark":"Town not included in the GAD Gazette"}},{"type":"Feature","id":"mmr_pplp1_mimu250k.26","geometry":{"type":"Point","coordinates":[99.18664,22.47704]},"geometry_name":"the_geom","properties":{"SD_Pcode":"MMR015","State_Divi":"Shan (North)","D_Pcode":"MMR015D332","District":"Wein Kawng (Wein Kao) (Wa SAD)","TS_Pcode":"MMR015315","Township":"Nam Hkam Wu","Town_Pcode":"MMR015315701","Town":"Nam Hkam Wu","Town_MMR4":"နမ်ခမ်းဝူး","Longitude":99.18664,"Latitude":22.47704,"Level":"Other Town","Source":"Field Sources","Remark":"Town not included in the GAD Gazette"}},{"type":"Feature","id":"mmr_pplp1_mimu250k.27","geometry":{"type":"Point","coordinates":[99.17044,22.17594]},"geometry_name":"the_geom","properties":{"SD_Pcode":"MMR015","State_Divi":"Shan (North)","D_Pcode":"MMR015D007","District":"Matman","TS_Pcode":"MMR015005","Township":"Pangsang","Town_Pcode":"MMR015005701","Town":"Pangsang (Pang Hkam)","Town_MMR4":"ပန်ဆန်း (ပန်ခမ်း)","Longitude":99.17044,"Latitude":22.17594,"Level":"Main Town","Source":"GAD, Mar 2015","Remark":""}},{"type":"Feature","id":"mmr_pplp1_mimu250k.28","geometry":{"type":"Point","coordinates":[99.09257652592564,22.607931176197166]},"geometry_name":"the_geom","properties":{"SD_Pcode":"MMR015","State_Divi":"Shan (North)","D_Pcode":"MMR015D007","District":"Matman","TS_Pcode":"MMR015006","Township":"Narphan","Town_Pcode":"MMR015006701","Town":"Narphan","Town_MMR4":"နားဖန်","Longitude":99.09257652592564,"Latitude":22.607931176197166,"Level":"Main Town","Source":"Field Sources","Remark":"Town not included in the GAD Gazette"}},{"type":"Feature","id":"mmr_pplp1_mimu250k.29","geometry":{"type":"Point","coordinates":[99.026,21.3502]},"geometry_name":"the_geom","properties":{"SD_Pcode":"MMR016","State_Divi":"Shan (East)","D_Pcode":"MMR016D001","District":"Kengtung","TS_Pcode":"MMR016007","Township":"Mongping","Town_Pcode":"MMR016007701","Town":"Mongping","Town_MMR4":"မိုင်းပျဉ်း","Longitude":99.026,"Latitude":21.3502,"Level":"Main Town","Source":"GAD, Mar 2015","Remark":""}},{"type":"Feature","id":"mmr_pplp1_mimu250k.30","geometry":{"type":"Point","coordinates":[99.0127764916,12.0894052627]},"geometry_name":"the_geom","properties":{"SD_Pcode":"MMR006","State_Divi":"Tanintharyi","D_Pcode":"MMR006D002","District":"Myeik","TS_Pcode":"MMR006008","Township":"Tanintharyi","Town_Pcode":"MMR006008701","Town":"Tanintharyi","Town_MMR4":"တနင်္သာရီ","Longitude":99.0127764916,"Latitude":12.0894052627,"Level":"Main Town","Source":"GAD, Mar 2015","Remark":""}},{"type":"Feature","id":"mmr_pplp1_mimu250k.31","geometry":{"type":"Point","coordinates":[99.0014383295,11.4684212529]},"geometry_name":"the_geom","properties":{"SD_Pcode":"MMR006","State_Divi":"Tanintharyi","D_Pcode":"MMR006D003","District":"Kawthoung","TS_Pcode":"MMR006010","Township":"Bokpyin","Town_Pcode":"MMR006010702","Town":"Pyigyimandaing","Town_MMR4":"ပြည်ကြီးမဏ္ဍိုင်","Longitude":99.0014383295,"Latitude":11.4684212529,"Level":"Other Town","Source":"GAD, Mar 2015","Remark":""}},{"type":"Feature","id":"mmr_pplp1_mimu250k.32","geometry":{"type":"Point","coordinates":[98.9674,22.9672]},"geometry_name":"the_geom","properties":{"SD_Pcode":"MMR015","State_Divi":"Shan (North)","D_Pcode":"MMR015D006","District":"Hopang","TS_Pcode":"MMR015008","Township":"Mongmao","Town_Pcode":"MMR015008701","Town":"Mongmao","Town_MMR4":"မိုင်းမော","Longitude":98.9674,"Latitude":22.9672,"Level":"Main Town","Source":"Field Sources","Remark":"Town not included in the GAD Gazette"}},{"type":"Feature","id":"mmr_pplp1_mimu250k.33","geometry":{"type":"Point","coordinates":[98.93896,22.30273]},"geometry_name":"the_geom","properties":{"SD_Pcode":"MMR015","State_Divi":"Shan (North)","D_Pcode":"MMR015D332","District":"Wein Kawng (Wein Kao) (Wa SAD)","TS_Pcode":"MMR015314","Township":"Nawng Hkit","Town_Pcode":"MMR015314702","Town":"Wein Kawn","Town_MMR4":"ဝိန်းကောင်","Longitude":98.93896,"Latitude":22.30273,"Level":"Other Town","Source":"Field Sources","Remark":"Town not included in the GAD Gazette"}},{"type":"Feature","id":"mmr_pplp1_mimu250k.34","geometry":{"type":"Point","coordinates":[98.9382,19.8892]},"geometry_name":"the_geom","properties":{"SD_Pcode":"MMR016","State_Divi":"Shan (East)","D_Pcode":"MMR016D002","District":"Monghsat","TS_Pcode":"MMR016008","Township":"Mongton","Town_Pcode":"MMR016008702","Town":"Ponparkyin","Town_MMR4":"ပုံပါကျင်","Longitude":98.9382,"Latitude":19.8892,"Level":"Other Town","Source":"GAD, Mar 2015","Remark":""}},{"type":"Feature","id":"mmr_pplp1_mimu250k.35","geometry":{"type":"Point","coordinates":[98.9248,22.43836]},"geometry_name":"the_geom","properties":{"SD_Pcode":"MMR015","State_Divi":"Shan (North)","D_Pcode":"MMR015D332","District":"Wein Kawng (Wein Kao) (Wa SAD)","TS_Pcode":"MMR015314","Township":"Nawng Hkit","Town_Pcode":"MMR015314701","Town":"Nawng Hkit","Town_MMR4":"နောင်ခစ်","Longitude":98.9248,"Latitude":22.43836,"Level":"Other Town","Source":"Field Sources","Remark":"Town not included in the GAD Gazette"}},{"type":"Feature","id":"mmr_pplp1_mimu250k.36","geometry":{"type":"Point","coordinates":[98.90008,20.30351]},"geometry_name":"the_geom","properties":{"SD_Pcode":"MMR016","State_Divi":"Shan (East)","D_Pcode":"MMR016D002","District":"Monghsat","TS_Pcode":"MMR016008","Township":"Mongton","Town_Pcode":"MMR016008701","Town":"Mongton","Town_MMR4":"မိုင်းတုံ","Longitude":98.90008,"Latitude":20.30351,"Level":"Main Town","Source":"GAD, Mar 2015","Remark":""}},{"type":"Feature","id":"mmr_pplp1_mimu250k.37","geometry":{"type":"Point","coordinates":[98.8708786459,21.9541743447]},"geometry_name":"the_geom","properties":{"SD_Pcode":"MMR015","State_Divi":"Shan (North)","D_Pcode":"MMR015D007","District":"Matman","TS_Pcode":"MMR015024","Township":"Matman","Town_Pcode":"MMR015024701","Town":"Matman","Town_MMR4":"မက်မန်း","Longitude":98.8708786459,"Latitude":21.9541743447,"Level":"District Capital","Source":"GAD, Mar 2015","Remark":""}},{"type":"Feature","id":"mmr_pplp1_mimu250k.38","geometry":{"type":"Point","coordinates":[98.86098,24.09692]},"geometry_name":"the_geom","properties":{"SD_Pcode":"MMR015","State_Divi":"Shan (North)","D_Pcode":"MMR015S002","District":"Kokang Self-Administered Zone","TS_Pcode":"MMR015023","Township":"Konkyan","Town_Pcode":"MMR015023702","Town":"Maw Hteik","Town_MMR4":"​မော်ထိုက်","Longitude":98.86098,"Latitude":24.09692,"Level":"Other Town","Source":"GAD, Mar 2015","Remark":""}},{"type":"Feature","id":"mmr_pplp1_mimu250k.39","geometry":{"type":"Point","coordinates":[98.83702,22.77647]},"geometry_name":"the_geom","properties":{"SD_Pcode":"MMR015","State_Divi":"Shan (North)","D_Pcode":"MMR015D331","District":"Mong Maw (Wa SAD)","TS_Pcode":"MMR015309","Township":"Lin Haw","Town_Pcode":"MMR015309701","Town":"Lin Haw","Town_MMR4":"လင်ဟော်","Longitude":98.83702,"Latitude":22.776470000000003,"Level":"Other Town","Source":"Field Sources","Remark":"Town not included in the GAD Gazette"}},{"type":"Feature","id":"mmr_pplp1_mimu250k.40","geometry":{"type":"Point","coordinates":[98.82419,23.47557]},"geometry_name":"the_geom","properties":{"SD_Pcode":"MMR015","State_Divi":"Shan (North)","D_Pcode":"MMR015S002","District":"Kokang Self-Administered Zone","TS_Pcode":"MMR015022","Township":"Laukkaing","Town_Pcode":"MMR015022702","Town":"Chinshwehaw","Town_MMR4":"ချင်းရွှေဟော်","Longitude":98.82419,"Latitude":23.47557,"Level":"Other Town","Source":"GAD, Mar 2015","Remark":""}},{"type":"Feature","id":"mmr_pplp1_mimu250k.41","geometry":{"type":"Point","coordinates":[98.7967514741,22.1291182353]},"geometry_name":"the_geom","properties":{"SD_Pcode":"MMR015","State_Divi":"Shan (North)","D_Pcode":"MMR015D332","District":"Wein Kawng (Wein Kao) (Wa SAD)","TS_Pcode":"MMR015318","Township":"Pang Yang","Town_Pcode":"MMR015318701","Town":"Pang Yang","Town_MMR4":"ပန်ယန်း","Longitude":98.7967514741,"Latitude":22.1291182353,"Level":"Other Town","Source":"Field Sources","Remark":"Town not included in the GAD Gazette"}},{"type":"Feature","id":"mmr_pplp1_mimu250k.42","geometry":{"type":"Point","coordinates":[98.78571,23.25641]},"geometry_name":"the_geom","properties":{"SD_Pcode":"MMR015","State_Divi":"Shan (North)","D_Pcode":"MMR015D006","District":"Hopang","TS_Pcode":"MMR015021","Township":"Hopang","Town_Pcode":"MMR015021703","Town":"Pan Lon","Town_MMR4":"ပန်လုံ","Longitude":98.78571,"Latitude":23.25641,"Level":"Other Town","Source":"GAD, Mar 2015","Remark":""}},{"type":"Feature","id":"mmr_pplp1_mimu250k.43","geometry":{"type":"Point","coordinates":[98.76685,22.50304]},"geometry_name":"the_geom","properties":{"SD_Pcode":"MMR015","State_Divi":"Shan (North)","D_Pcode":"MMR015D332","District":"Wein Kawng (Wein Kao) (Wa SAD)","TS_Pcode":"MMR015313","Township":"Man Man Hseng","Town_Pcode":"MMR015313701","Town":"Man Man Hseng","Town_MMR4":"မန်မန်ဆိုင်","Longitude":98.76684999999999,"Latitude":22.50304,"Level":"Other Town","Source":"Field Sources","Remark":"Town not included in the GAD Gazette"}},{"type":"Feature","id":"mmr_pplp1_mimu250k.44","geometry":{"type":"Point","coordinates":[98.76408,23.69163]},"geometry_name":"the_geom","properties":{"SD_Pcode":"MMR015","State_Divi":"Shan (North)","D_Pcode":"MMR015S002","District":"Kokang Self-Administered Zone","TS_Pcode":"MMR015022","Township":"Laukkaing","Town_Pcode":"MMR015022701","Town":"Laukkaing","Town_MMR4":"လောက်ကိုင်","Longitude":98.76408,"Latitude":23.69163,"Level":"District Capital","Source":"GAD, Mar 2015","Remark":""}},{"type":"Feature","id":"mmr_pplp1_mimu250k.45","geometry":{"type":"Point","coordinates":[98.7590942164,11.2650396798]},"geometry_name":"the_geom","properties":{"SD_Pcode":"MMR006","State_Divi":"Tanintharyi","D_Pcode":"MMR006D003","District":"Kawthoung","TS_Pcode":"MMR006010","Township":"Bokpyin","Town_Pcode":"MMR006010701","Town":"Bokpyin","Town_MMR4":"ဘုတ်ပြင်း","Longitude":98.7590942164,"Latitude":11.2650396798,"Level":"Main Town","Source":"GAD, Mar 2015","Remark":""}},{"type":"Feature","id":"mmr_pplp1_mimu250k.46","geometry":{"type":"Point","coordinates":[98.75998,10.93336]},"geometry_name":"the_geom","properties":{"SD_Pcode":"MMR006","State_Divi":"Tanintharyi","D_Pcode":"MMR006D003","District":"Kawthoung","TS_Pcode":"MMR006010","Township":"Bokpyin","Town_Pcode":"MMR006010703","Town":"Karathuri","Town_MMR4":"ကရသူရိ","Longitude":98.75998,"Latitude":10.93336,"Level":"Other Town","Source":"GAD, Mar 2015","Remark":""}},{"type":"Feature","id":"mmr_pplp1_mimu250k.47","geometry":{"type":"Point","coordinates":[98.75029,23.42544]},"geometry_name":"the_geom","properties":{"SD_Pcode":"MMR015","State_Divi":"Shan (North)","D_Pcode":"MMR015D006","District":"Hopang","TS_Pcode":"MMR015021","Township":"Hopang","Town_Pcode":"MMR015021701","Town":"Hopang","Town_MMR4":"ဟိုပန်","Longitude":98.75029,"Latitude":23.42544,"Level":"District Capital","Source":"GAD, Mar 2015","Remark":""}},{"type":"Feature","id":"mmr_pplp1_mimu250k.48","geometry":{"type":"Point","coordinates":[98.72545,22.71811]},"geometry_name":"the_geom","properties":{"SD_Pcode":"MMR015","State_Divi":"Shan (North)","D_Pcode":"MMR015D331","District":"Mong Maw (Wa SAD)","TS_Pcode":"MMR015310","Township":"Ka Lawng Hpar","Town_Pcode":"MMR015310701","Town":"Ka Lawng Hpar","Town_MMR4":"ကလောင်ဖါ","Longitude":98.72545,"Latitude":22.71811,"Level":"Other Town","Source":"Field Sources","Remark":"Town not included in the GAD Gazette"}},{"type":"Feature","id":"mmr_pplp1_mimu250k.49","geometry":{"type":"Point","coordinates":[98.7102692498943,22.373694821559766]},"geometry_name":"the_geom","properties":{"SD_Pcode":"MMR015","State_Divi":"Shan (North)","D_Pcode":"MMR015D332","District":"Wein Kawng (Wein Kao) (Wa SAD)","TS_Pcode":"MMR015316","Township":"Nar Kawng","Town_Pcode":"MMR015316701","Town":"Nar Kawng","Town_MMR4":"နားကောင်","Longitude":98.7102692498943,"Latitude":22.373694821559766,"Level":"Other Town","Source":"Field Sources","Remark":"Town not included in the GAD Gazette"}},{"type":"Feature","id":"mmr_pplp1_mimu250k.50","geometry":{"type":"Point","coordinates":[98.71324,16.29392]},"geometry_name":"the_geom","properties":{"SD_Pcode":"MMR003","State_Divi":"Kayin","D_Pcode":"MMR003D002","District":"Myawaddy","TS_Pcode":"MMR003005","Township":"Myawaddy","Town_Pcode":"MMR003005703","Town":"Waw Lay Myaing (Waw Lay)","Town_MMR4":"ဝေါလေမြိုင်(ဝေါလေ)","Longitude":98.71324,"Latitude":16.29392,"Level":"Other Town","Source":"GAD, Mar 2015","Remark":""}},{"type":"Feature","id":"mmr_pplp1_mimu250k.51","geometry":{"type":"Point","coordinates":[98.66354,23.11117]},"geometry_name":"the_geom","properties":{"SD_Pcode":"MMR015","State_Divi":"Shan (North)","D_Pcode":"MMR015D331","District":"Mong Maw (Wa SAD)","TS_Pcode":"MMR015302","Township":"Nar Wee (Na Wi)","Town_Pcode":"MMR015302701","Town":"Nar Wee (Na Wi)","Town_MMR4":"နာဝီး","Longitude":98.66354,"Latitude":23.11117,"Level":"Other Town","Source":"Field Sources","Remark":"Town not included in the GAD Gazette"}},{"type":"Feature","id":"mmr_pplp1_mimu250k.52","geometry":{"type":"Point","coordinates":[98.5338061837,21.2887182142]},"geometry_name":"the_geom","properties":{"SD_Pcode":"MMR014","State_Divi":"Shan (South)","D_Pcode":"MMR014D002","District":"Loilen","TS_Pcode":"MMR014014","Township":"Kunhing","Town_Pcode":"MMR014014702","Town":"Kar Li","Town_MMR4":"ကာလိ","Longitude":98.5338061837,"Latitude":21.2887182142,"Level":"Other Town","Source":"GAD, Mar 2015","Remark":""}},{"type":"Feature","id":"mmr_pplp1_mimu250k.53","geometry":{"type":"Point","coordinates":[98.6457918957,12.9753059471]},"geometry_name":"the_geom","properties":{"SD_Pcode":"MMR006","State_Divi":"Tanintharyi","D_Pcode":"MMR006D002","District":"Myeik","TS_Pcode":"MMR006007","Township":"Palaw","Town_Pcode":"MMR006007701","Town":"Palaw","Town_MMR4":"ပုလော","Longitude":98.6457918957,"Latitude":12.9753059471,"Level":"Main Town","Source":"GAD, Mar 2015","Remark":""}},{"type":"Feature","id":"mmr_pplp1_mimu250k.54","geometry":{"type":"Point","coordinates":[98.65052624173474,23.416454719482573]},"geometry_name":"the_geom","properties":{"SD_Pcode":"MMR015","State_Divi":"Shan (North)","D_Pcode":"MMR015D001","District":"Lashio","TS_Pcode":"MMR015020","Township":"Kunlong","Town_Pcode":"MMR015020701","Town":"Kunlong","Town_MMR4":"ကွမ်းလုံ","Longitude":98.65052624173474,"Latitude":23.416454719482573,"Level":"Main Town","Source":"GAD, Mar 2015","Remark":""}},{"type":"Feature","id":"mmr_pplp1_mimu250k.55","geometry":{"type":"Point","coordinates":[98.625,10.353]},"geometry_name":"the_geom","properties":{"SD_Pcode":"MMR006","State_Divi":"Tanintharyi","D_Pcode":"MMR006D003","District":"Kawthoung","TS_Pcode":"MMR006009","Township":"Kawthoung","Town_Pcode":"MMR006009702","Town":"Khamaukgyi","Town_MMR4":"ခမောက်ကြီး","Longitude":98.625,"Latitude":10.353,"Level":"Other Town","Source":"GAD, Mar 2015","Remark":""}},{"type":"Feature","id":"mmr_pplp1_mimu250k.56","geometry":{"type":"Point","coordinates":[98.62248263638158,13.272226562561645]},"geometry_name":"the_geom","properties":{"SD_Pcode":"MMR006","State_Divi":"Tanintharyi","D_Pcode":"MMR006D002","District":"Myeik","TS_Pcode":"MMR006007","Township":"Palaw","Town_Pcode":"MMR006007702","Town":"Palauk","Town_MMR4":"ပလောက်","Longitude":98.62248263638158,"Latitude":13.272226562561645,"Level":"Other Town","Source":"GAD, Mar 2015","Remark":""}},{"type":"Feature","id":"mmr_pplp1_mimu250k.57","geometry":{"type":"Point","coordinates":[98.612,22.94789]},"geometry_name":"the_geom","properties":{"SD_Pcode":"MMR015","State_Divi":"Shan (North)","D_Pcode":"MMR015D331","District":"Mong Maw (Wa SAD)","TS_Pcode":"MMR015303","Township":"Man Tun","Town_Pcode":"MMR015303701","Town":"Man Tun","Town_MMR4":"မန်တွန်း","Longitude":98.612,"Latitude":22.94789,"Level":"Other Town","Source":"Field Sources","Remark":"Town not included in the GAD Gazette"}},{"type":"Feature","id":"mmr_pplp1_mimu250k.58","geometry":{"type":"Point","coordinates":[98.60978,12.44112]},"geometry_name":"the_geom","properties":{"SD_Pcode":"MMR006","State_Divi":"Tanintharyi","D_Pcode":"MMR006D002","District":"Myeik","TS_Pcode":"MMR006005","Township":"Myeik","Town_Pcode":"MMR006005701","Town":"Myeik","Town_MMR4":"မြိတ်","Longitude":98.60978,"Latitude":12.44112,"Level":"District Capital","Source":"GAD, Mar 2015","Remark":""}},{"type":"Feature","id":"mmr_pplp1_mimu250k.59","geometry":{"type":"Point","coordinates":[98.59621,16.15439]},"geometry_name":"the_geom","properties":{"SD_Pcode":"MMR003","State_Divi":"Kayin","D_Pcode":"MMR003D002","District":"Myawaddy","TS_Pcode":"MMR003005","Township":"Myawaddy","Town_Pcode":"MMR003005702","Town":"Su Ka Li","Town_MMR4":"စုကလိ","Longitude":98.59621,"Latitude":16.15439,"Level":"Other Town","Source":"GAD, Mar 2015","Remark":""}},{"type":"Feature","id":"mmr_pplp1_mimu250k.60","geometry":{"type":"Point","coordinates":[98.59519,22.68954]},"geometry_name":"the_geom","properties":{"SD_Pcode":"MMR015","State_Divi":"Shan (North)","D_Pcode":"MMR015D007","District":"Matman","TS_Pcode":"MMR015005","Township":"Pangsang","Town_Pcode":"MMR015005702","Town":"Man Kan","Town_MMR4":"မန်ကန်","Longitude":98.59519,"Latitude":22.68954,"Level":"Other Town","Source":"GAD, Mar 2015","Remark":""}},{"type":"Feature","id":"mmr_pplp1_mimu250k.61","geometry":{"type":"Point","coordinates":[98.5499529834,9.98260986197]},"geometry_name":"the_geom","properties":{"SD_Pcode":"MMR006","State_Divi":"Tanintharyi","D_Pcode":"MMR006D003","District":"Kawthoung","TS_Pcode":"MMR006009","Township":"Kawthoung","Town_Pcode":"MMR006009701","Town":"Kawthoung","Town_MMR4":"ကော့သောင်း","Longitude":98.5499529834,"Latitude":9.98260986197,"Level":"District Capital","Source":"GAD, Mar 2015","Remark":""}},{"type":"Feature","id":"mmr_pplp1_mimu250k.62","geometry":{"type":"Point","coordinates":[98.5670835,19.7978983]},"geometry_name":"the_geom","properties":{"SD_Pcode":"MMR016","State_Divi":"Shan (East)","D_Pcode":"MMR016D002","District":"Monghsat","TS_Pcode":"MMR016008","Township":"Mongton","Town_Pcode":"MMR016008703","Town":"Hmone Hta","Town_MMR4":"မုံးထ","Longitude":98.5670835,"Latitude":19.7978983,"Level":"Other Town","Source":"GAD, Mar 2015","Remark":""}},{"type":"Feature","id":"mmr_pplp1_mimu250k.63","geometry":{"type":"Point","coordinates":[98.53934,23.82946]},"geometry_name":"the_geom","properties":{"SD_Pcode":"MMR015","State_Divi":"Shan (North)","D_Pcode":"MMR015S002","District":"Kokang Self-Administered Zone","TS_Pcode":"MMR015023","Township":"Konkyan","Town_Pcode":"MMR015023701","Town":"Konkyan","Town_MMR4":"ကုန်းကြမ်း","Longitude":98.53934,"Latitude":23.82946,"Level":"Main Town","Source":"GAD, Mar 2015","Remark":""}},{"type":"Feature","id":"mmr_pplp1_mimu250k.64","geometry":{"type":"Point","coordinates":[98.52017,14.16355]},"geometry_name":"the_geom","properties":{"SD_Pcode":"MMR006","State_Divi":"Tanintharyi","D_Pcode":"MMR006D001","District":"Dawei","TS_Pcode":"MMR006001","Township":"Dawei","Town_Pcode":"MMR006001702","Town":"Myitta","Town_MMR4":"မေတ္တာ","Longitude":98.52017,"Latitude":14.16355,"Level":"Other Town","Source":"GAD, Mar 2015","Remark":""}},{"type":"Feature","id":"mmr_pplp1_mimu250k.65","geometry":{"type":"Point","coordinates":[98.51303563,16.6886775819]},"geometry_name":"the_geom","properties":{"SD_Pcode":"MMR003","State_Divi":"Kayin","D_Pcode":"MMR003D002","District":"Myawaddy","TS_Pcode":"MMR003005","Township":"Myawaddy","Town_Pcode":"MMR003005701","Town":"Myawaddy","Town_MMR4":"မြဝတီ","Longitude":98.51303563,"Latitude":16.6886775819,"Level":"District Capital","Source":"GAD, Mar 2015","Remark":""}},{"type":"Feature","id":"mmr_pplp1_mimu250k.66","geometry":{"type":"Point","coordinates":[98.4544308596,12.4738602304]},"geometry_name":"the_geom","properties":{"SD_Pcode":"MMR006","State_Divi":"Tanintharyi","D_Pcode":"MMR006D002","District":"Myeik","TS_Pcode":"MMR006006","Township":"Kyunsu","Town_Pcode":"MMR006006701","Town":"Kyunsu","Town_MMR4":"ကျွန်းစု","Longitude":98.4544308596,"Latitude":12.4738602304,"Level":"Main Town","Source":"GAD, Mar 2015","Remark":""}},{"type":"Feature","id":"mmr_pplp1_mimu250k.67","geometry":{"type":"Point","coordinates":[98.424,21.301]},"geometry_name":"the_geom","properties":{"SD_Pcode":"MMR014","State_Divi":"Shan (South)","D_Pcode":"MMR014D002","District":"Loilen","TS_Pcode":"MMR014014","Township":"Kunhing","Town_Pcode":"MMR014014701","Town":"Kunhing","Town_MMR4":"ကွန်ဟိန်း","Longitude":98.424,"Latitude":21.301,"Level":"Main Town","Source":"GAD, Mar 2015","Remark":""}},{"type":"Feature","id":"mmr_pplp1_mimu250k.68","geometry":{"type":"Point","coordinates":[98.3968,22.4981]},"geometry_name":"the_geom","properties":{"SD_Pcode":"MMR015","State_Divi":"Shan (North)","D_Pcode":"MMR015D001","District":"Lashio","TS_Pcode":"MMR015004","Township":"Tangyan","Town_Pcode":"MMR015004701","Town":"Tangyan","Town_MMR4":"တန့်ယန်း","Longitude":98.3968,"Latitude":22.4981,"Level":"Main Town","Source":"GAD, Mar 2015","Remark":""}},{"type":"Feature","id":"mmr_pplp1_mimu250k.69","geometry":{"type":"Point","coordinates":[98.3926839597,16.0025306161]},"geometry_name":"the_geom","properties":{"SD_Pcode":"MMR003","State_Divi":"Kayin","D_Pcode":"MMR003D003","District":"Kawkareik","TS_Pcode":"MMR003007","Township":"Kyainseikgyi","Town_Pcode":"MMR003007703","Town":"Kyaikdon","Town_MMR4":"ကျိုက်ဒုံ","Longitude":98.3926839597,"Latitude":16.0025306161,"Level":"Other Town","Source":"GAD, Mar 2015","Remark":""}},{"type":"Feature","id":"mmr_pplp1_mimu250k.70","geometry":{"type":"Point","coordinates":[98.37863,25.59866]},"geometry_name":"the_geom","properties":{"SD_Pcode":"MMR001","State_Divi":"Kachin","D_Pcode":"MMR001D001","District":"Myitkyina","TS_Pcode":"MMR001005","Township":"Chipwi","Town_Pcode":"MMR001005702","Town":"Pang War","Town_MMR4":"ပန်ဝါ မ","Longitude":98.37863,"Latitude":25.59866,"Level":"Other Town","Source":"GAD, Mar 2015","Remark":""}},{"type":"Feature","id":"mmr_pplp1_mimu250k.71","geometry":{"type":"Point","coordinates":[98.37808,15.30444]},"geometry_name":"the_geom","properties":{"SD_Pcode":"MMR003","State_Divi":"Kayin","D_Pcode":"MMR003D003","District":"Kawkareik","TS_Pcode":"MMR003007","Township":"Kyainseikgyi","Town_Pcode":"MMR003007702","Town":"Hpayarthonesu","Town_MMR4":"ဘုရားသုံးဆူ","Longitude":98.37808,"Latitude":15.30444,"Level":"Other Town","Source":"GAD, Mar 2015","Remark":""}},{"type":"Feature","id":"mmr_pplp1_mimu250k.72","geometry":{"type":"Point","coordinates":[98.36456,21.65989]},"geometry_name":"the_geom","properties":{"SD_Pcode":"MMR014","State_Divi":"Shan (South)","D_Pcode":"MMR014D002","District":"Loilen","TS_Pcode":"MMR014017","Township":"Monghsu","Town_Pcode":"MMR014017702","Town":"Mongsan (Hmonesan)","Town_MMR4":"မိုင်းစံ (မုန်းဆန်း)","Longitude":98.36456,"Latitude":21.65989,"Level":"Other Town","Source":"GAD, Mar 2015","Remark":""}},{"type":"Feature","id":"mmr_pplp1_mimu250k.73","geometry":{"type":"Point","coordinates":[98.3603427383,27.0604297567]},"geometry_name":"the_geom","properties":{"SD_Pcode":"MMR001","State_Divi":"Kachin","D_Pcode":"MMR001D004","District":"Puta-O","TS_Pcode":"MMR001018","Township":"Khaunglanhpu","Town_Pcode":"MMR001018701","Town":"Khaunglanhpu","Town_MMR4":"ခေါင်လန်ဖူး","Longitude":98.3603427383,"Latitude":27.0604297567,"Level":"Main Town","Source":"GAD, Mar 2015","Remark":""}},{"type":"Feature","id":"mmr_pplp1_mimu250k.74","geometry":{"type":"Point","coordinates":[98.36044,21.90513]},"geometry_name":"the_geom","properties":{"SD_Pcode":"MMR014","State_Divi":"Shan (South)","D_Pcode":"MMR014D002","District":"Loilen","TS_Pcode":"MMR014017","Township":"Monghsu","Town_Pcode":"MMR014017701","Town":"Monghsu","Town_MMR4":"မိုင်းရှူး","Longitude":98.36044,"Latitude":21.90513,"Level":"Main Town","Source":"GAD, Mar 2015","Remark":""}},{"type":"Feature","id":"mmr_pplp1_mimu250k.75","geometry":{"type":"Point","coordinates":[98.3541,20.3188]},"geometry_name":"the_geom","properties":{"SD_Pcode":"MMR014","State_Divi":"Shan (South)","D_Pcode":"MMR014D003","District":"Langkho","TS_Pcode":"MMR014021","Township":"Mongpan","Town_Pcode":"MMR014021701","Town":"Mongpan","Town_MMR4":"မိုင်းပန်","Longitude":98.3541,"Latitude":20.3188,"Level":"Main Town","Source":"GAD, Mar 2015","Remark":""}},{"type":"Feature","id":"mmr_pplp1_mimu250k.76","geometry":{"type":"Point","coordinates":[98.3031,24.0998]},"geometry_name":"the_geom","properties":{"SD_Pcode":"MMR015","State_Divi":"Shan (North)","D_Pcode":"MMR015D002","District":"Muse","TS_Pcode":"MMR015009","Township":"Muse","Town_Pcode":"MMR015009702","Town":"Monekoe","Town_MMR4":"မုန်းကိုး","Longitude":98.3031,"Latitude":24.0998,"Level":"Other Town","Source":"GAD, Mar 2015","Remark":""}},{"type":"Feature","id":"mmr_pplp1_mimu250k.77","geometry":{"type":"Point","coordinates":[98.29333,20.75728]},"geometry_name":"the_geom","properties":{"SD_Pcode":"MMR014","State_Divi":"Shan (South)","D_Pcode":"MMR014D003","District":"Langkho","TS_Pcode":"MMR014019","Township":"Mongnai","Town_Pcode":"MMR014019702","Town":"Kengtawng","Town_MMR4":"ကျိုင်းတောင်း","Longitude":98.29333,"Latitude":20.75728,"Level":"Other Town","Source":"GAD, Mar 2015","Remark":""}},{"type":"Feature","id":"mmr_pplp1_mimu250k.78","geometry":{"type":"Point","coordinates":[98.2704868075,26.1541860735]},"geometry_name":"the_geom","properties":{"SD_Pcode":"MMR001","State_Divi":"Kachin","D_Pcode":"MMR001D001","District":"Myitkyina","TS_Pcode":"MMR001006","Township":"Tsawlaw","Town_Pcode":"MMR001006701","Town":"Tsawlaw","Town_MMR4":"ဆော့လော်","Longitude":98.2704868075,"Latitude":26.1541860735,"Level":"Main Town","Source":"GAD, Mar 2015","Remark":""}},{"type":"Feature","id":"mmr_pplp1_mimu250k.79","geometry":{"type":"Point","coordinates":[98.2625154665,13.8687046239]},"geometry_name":"the_geom","properties":{"SD_Pcode":"MMR006","State_Divi":"Tanintharyi","D_Pcode":"MMR006D001","District":"Dawei","TS_Pcode":"MMR006003","Township":"Thayetchaung","Town_Pcode":"MMR006003701","Town":"Thayetchaung","Town_MMR4":"သရက်ချောင်း","Longitude":98.2625154665,"Latitude":13.8687046239,"Level":"Main Town","Source":"GAD, Mar 2015","Remark":""}},{"type":"Feature","id":"mmr_pplp1_mimu250k.80","geometry":{"type":"Point","coordinates":[98.23996,16.55553]},"geometry_name":"the_geom","properties":{"SD_Pcode":"MMR003","State_Divi":"Kayin","D_Pcode":"MMR003D003","District":"Kawkareik","TS_Pcode":"MMR003006","Township":"Kawkareik","Town_Pcode":"MMR003006701","Town":"Kawkareik","Town_MMR4":"ကော့ကရိတ်","Longitude":98.23996,"Latitude":16.55553,"Level":"District Capital","Source":"GAD, Mar 2015","Remark":""}},{"type":"Feature","id":"mmr_pplp1_mimu250k.81","geometry":{"type":"Point","coordinates":[98.19636,14.07753]},"geometry_name":"the_geom","properties":{"SD_Pcode":"MMR006","State_Divi":"Tanintharyi","D_Pcode":"MMR006D001","District":"Dawei","TS_Pcode":"MMR006001","Township":"Dawei","Town_Pcode":"MMR006001701","Town":"Dawei","Town_MMR4":"ထားဝယ်","Longitude":98.19636,"Latitude":14.07753,"Level":"State/Region Capital","Source":"GAD, Mar 2015","Remark":""}},{"type":"Feature","id":"mmr_pplp1_mimu250k.82","geometry":{"type":"Point","coordinates":[98.1384944066,14.6237968178]},"geometry_name":"the_geom","properties":{"SD_Pcode":"MMR006","State_Divi":"Tanintharyi","D_Pcode":"MMR006D001","District":"Dawei","TS_Pcode":"MMR006004","Township":"Yebyu","Town_Pcode":"MMR006004702","Town":"Kaleinaung","Town_MMR4":"ကလိန်အောင်","Longitude":98.1384944066,"Latitude":14.6237968178,"Level":"Other Town","Source":"GAD, Mar 2015","Remark":""}},{"type":"Feature","id":"mmr_pplp1_mimu250k.83","geometry":{"type":"Point","coordinates":[98.12976,25.88635]},"geometry_name":"the_geom","properties":{"SD_Pcode":"MMR001","State_Divi":"Kachin","D_Pcode":"MMR001D001","District":"Myitkyina","TS_Pcode":"MMR001005","Township":"Chipwi","Town_Pcode":"MMR001005701","Town":"Chipwi","Town_MMR4":"ချီဖွေ","Longitude":98.12976,"Latitude":25.88635,"Level":"Main Town","Source":"GAD, Mar 2015","Remark":""}},{"type":"Feature","id":"mmr_pplp1_mimu250k.84","geometry":{"type":"Point","coordinates":[98.12322,16.04079]},"geometry_name":"the_geom","properties":{"SD_Pcode":"MMR003","State_Divi":"Kayin","D_Pcode":"MMR003D003","District":"Kawkareik","TS_Pcode":"MMR003007","Township":"Kyainseikgyi","Town_Pcode":"MMR003007701","Town":"Kyainseikgyi","Town_MMR4":"ကြာအင်းဆိပ်ကြီး","Longitude":98.12322,"Latitude":16.04079,"Level":"Main Town","Source":"GAD, Mar 2015","Remark":""}},{"type":"Feature","id":"mmr_pplp1_mimu250k.85","geometry":{"type":"Point","coordinates":[98.123,21.645]},"geometry_name":"the_geom","properties":{"SD_Pcode":"MMR014","State_Divi":"Shan (South)","D_Pcode":"MMR014D002","District":"Loilen","TS_Pcode":"MMR014015","Township":"Kyethi","Town_Pcode":"MMR014015702","Town":"Mongnawng","Town_MMR4":"မိုင်းနောင်","Longitude":98.123,"Latitude":21.645,"Level":"Other Town","Source":"GAD, Mar 2015","Remark":""}},{"type":"Feature","id":"mmr_pplp1_mimu250k.86","geometry":{"type":"Point","coordinates":[98.11963,13.97522]},"geometry_name":"the_geom","properties":{"SD_Pcode":"MMR006","State_Divi":"Tanintharyi","D_Pcode":"MMR006D001","District":"Dawei","TS_Pcode":"MMR006002","Township":"Launglon","Town_Pcode":"MMR006002701","Town":"Launglon","Town_MMR4":"လောင်းလုံး","Longitude":98.11963,"Latitude":13.97522,"Level":"Main Town","Source":"GAD, Mar 2015","Remark":""}},{"type":"Feature","id":"mmr_pplp1_mimu250k.87","geometry":{"type":"Point","coordinates":[98.11739,25.40319]},"geometry_name":"the_geom","properties":{"SD_Pcode":"MMR001","State_Divi":"Kachin","D_Pcode":"MMR001D001","District":"Myitkyina","TS_Pcode":"MMR001002","Township":"Waingmaw","Town_Pcode":"MMR001002703","Town":"Kan Paik Ti","Town_MMR4":"ကန်ပိုက်တီ","Longitude":98.11739,"Latitude":25.40319,"Level":"Other Town","Source":"GAD, Mar 2015","Remark":""}},{"type":"Feature","id":"mmr_pplp1_mimu250k.88","geometry":{"type":"Point","coordinates":[98.10086,21.09887]},"geometry_name":"the_geom","properties":{"SD_Pcode":"MMR014","State_Divi":"Shan (South)","D_Pcode":"MMR014D002","District":"Loilen","TS_Pcode":"MMR014013","Township":"Nansang","Town_Pcode":"MMR014013702","Town":"Kho Lam","Town_MMR4":"ခိုလမ်","Longitude":98.10086,"Latitude":21.09887,"Level":"Other Town","Source":"GAD, Mar 2015","Remark":""}},{"type":"Feature","id":"mmr_pplp1_mimu250k.89","geometry":{"type":"Point","coordinates":[98.09862,23.57597]},"geometry_name":"the_geom","properties":{"SD_Pcode":"MMR015","State_Divi":"Shan (North)","D_Pcode":"MMR015D002","District":"Muse","TS_Pcode":"MMR015011","Township":"Kutkai","Town_Pcode":"MMR015011702","Town":"Tarmoenye","Town_MMR4":"တာမိုးညဲ","Longitude":98.09862,"Latitude":23.57597,"Level":"Other Town","Source":"GAD, Mar 2015","Remark":""}},{"type":"Feature","id":"mmr_pplp1_mimu250k.90","geometry":{"type":"Point","coordinates":[98.06229,24.07548]},"geometry_name":"the_geom","properties":{"SD_Pcode":"MMR015","State_Divi":"Shan (North)","D_Pcode":"MMR015D002","District":"Muse","TS_Pcode":"MMR015009","Township":"Muse","Town_Pcode":"MMR015009704","Town":"Pang Hseng (Kyu Koke)","Town_MMR4":"ပန်ဆိုင်း (ကြူကုတ်)","Longitude":98.06229,"Latitude":24.07548,"Level":"Other Town","Source":"GAD, Mar 2015","Remark":""}},{"type":"Feature","id":"mmr_pplp1_mimu250k.91","geometry":{"type":"Point","coordinates":[98.0389972,22.4276179]},"geometry_name":"the_geom","properties":{"SD_Pcode":"MMR015","State_Divi":"Shan (North)","D_Pcode":"MMR015D001","District":"Lashio","TS_Pcode":"MMR015003","Township":"Mongyai","Town_Pcode":"MMR015003701","Town":"Mongyai","Town_MMR4":"မိုင်းရယ်","Longitude":98.0389972,"Latitude":22.4276179,"Level":"Main Town","Source":"GAD, Mar 2015","Remark":""}},{"type":"Feature","id":"mmr_pplp1_mimu250k.92","geometry":{"type":"Point","coordinates":[98.2029072628,14.245909857]},"geometry_name":"the_geom","properties":{"SD_Pcode":"MMR006","State_Divi":"Tanintharyi","D_Pcode":"MMR006D001","District":"Dawei","TS_Pcode":"MMR006004","Township":"Yebyu","Town_Pcode":"MMR006004701","Town":"Yebyu","Town_MMR4":"ရေဖြူ","Longitude":98.2029072628,"Latitude":14.245909857,"Level":"Main Town","Source":"GAD, Mar 2015","Remark":""}},{"type":"Feature","id":"mmr_pplp1_mimu250k.93","geometry":{"type":"Point","coordinates":[98.00371,20.34222]},"geometry_name":"the_geom","properties":{"SD_Pcode":"MMR014","State_Divi":"Shan (South)","D_Pcode":"MMR014D003","District":"Langkho","TS_Pcode":"MMR014018","Township":"Langkho","Town_Pcode":"MMR014018701","Town":"Langkho","Town_MMR4":"လင်းခေး","Longitude":98.00371,"Latitude":20.34222,"Level":"District Capital","Source":"GAD, Mar 2015","Remark":""}},{"type":"Feature","id":"mmr_pplp1_mimu250k.94","geometry":{"type":"Point","coordinates":[97.9859650047,17.0216995839]},"geometry_name":"the_geom","properties":{"SD_Pcode":"MMR003","State_Divi":"Kayin","D_Pcode":"MMR003D001","District":"Hpa-An","TS_Pcode":"MMR003002","Township":"Hlaingbwe","Town_Pcode":"MMR003002702","Town":"Paingkyon","Town_MMR4":"ပိုင်ကျုံ","Longitude":97.9859650047,"Latitude":17.0216995839,"Level":"Other Town","Source":"GAD, Mar 2015","Remark":""}},{"type":"Feature","id":"mmr_pplp1_mimu250k.95","geometry":{"type":"Point","coordinates":[97.979,19.769]},"geometry_name":"the_geom","properties":{"SD_Pcode":"MMR014","State_Divi":"Shan (South)","D_Pcode":"MMR014D003","District":"Langkho","TS_Pcode":"MMR014018","Township":"Langkho","Town_Pcode":"MMR014018702","Town":"Homein","Town_MMR4":"ဟိုမိန်း","Longitude":97.979,"Latitude":19.769,"Level":"Other Town","Source":"GAD, Mar 2015","Remark":""}},{"type":"Feature","id":"mmr_pplp1_mimu250k.96","geometry":{"type":"Point","coordinates":[97.9736,23.3072]},"geometry_name":"the_geom","properties":{"SD_Pcode":"MMR015","State_Divi":"Shan (North)","D_Pcode":"MMR015D001","District":"Lashio","TS_Pcode":"MMR015002","Township":"Hseni","Town_Pcode":"MMR015002701","Town":"Hseni","Town_MMR4":"သိန္နီ","Longitude":97.9736,"Latitude":23.3072,"Level":"Main Town","Source":"GAD, Mar 2015","Remark":""}},{"type":"Feature","id":"mmr_pplp1_mimu250k.97","geometry":{"type":"Point","coordinates":[97.94341,23.45921]},"geometry_name":"the_geom","properties":{"SD_Pcode":"MMR015","State_Divi":"Shan (North)","D_Pcode":"MMR015D002","District":"Muse","TS_Pcode":"MMR015011","Township":"Kutkai","Town_Pcode":"MMR015011701","Town":"Kutkai","Town_MMR4":"ကွတ်ခိုင်","Longitude":97.94341,"Latitude":23.45921,"Level":"Main Town","Source":"GAD, Mar 2015","Remark":""}},{"type":"Feature","id":"mmr_pplp1_mimu250k.98","geometry":{"type":"Point","coordinates":[97.90165,23.98989]},"geometry_name":"the_geom","properties":{"SD_Pcode":"MMR015","State_Divi":"Shan (North)","D_Pcode":"MMR015D002","District":"Muse","TS_Pcode":"MMR015009","Township":"Muse","Town_Pcode":"MMR015009701","Town":"Muse","Town_MMR4":"မူဆယ်","Longitude":97.90165,"Latitude":23.98989,"Level":"District Capital","Source":"GAD, Mar 2015","Remark":""}},{"type":"Feature","id":"mmr_pplp1_mimu250k.99","geometry":{"type":"Point","coordinates":[97.88778,17.42438]},"geometry_name":"the_geom","properties":{"SD_Pcode":"MMR003","State_Divi":"Kayin","D_Pcode":"MMR003D001","District":"Hpa-An","TS_Pcode":"MMR003002","Township":"Hlaingbwe","Town_Pcode":"MMR003002703","Town":"Shan Ywar Thit","Town_MMR4":"ရှမ်းရွာသစ်","Longitude":97.88778,"Latitude":17.42438,"Level":"Other Town","Source":"GAD, Mar 2015","Remark":""}},{"type":"Feature","id":"mmr_pplp1_mimu250k.100","geometry":{"type":"Point","coordinates":[97.8999605316,25.397088956]},"geometry_name":"the_geom","properties":{"SD_Pcode":"MMR001","State_Divi":"Kachin","D_Pcode":"MMR001D001","District":"Myitkyina","TS_Pcode":"MMR001002","Township":"Waingmaw","Town_Pcode":"MMR001002702","Town":"Sadung","Town_MMR4":"ဆဒုံး","Longitude":97.8999605316,"Latitude":25.397088956,"Level":"Other Town","Source":"GAD, Mar 2015","Remark":""}},{"type":"Feature","id":"mmr_pplp1_mimu250k.101","geometry":{"type":"Point","coordinates":[97.8766184189,27.7281019827]},"geometry_name":"the_geom","properties":{"SD_Pcode":"MMR001","State_Divi":"Kachin","D_Pcode":"MMR001D004","District":"Puta-O","TS_Pcode":"MMR001017","Township":"Nawngmun","Town_Pcode":"MMR001017702","Town":"Pannandin","Town_MMR4":"ပန်နန်းဒင်","Longitude":97.8766184189,"Latitude":27.7281019827,"Level":"Other Town","Source":"GAD, Mar 2015","Remark":""}},{"type":"Feature","id":"mmr_pplp1_mimu250k.102","geometry":{"type":"Point","coordinates":[97.8712,20.5136]},"geometry_name":"the_geom","properties":{"SD_Pcode":"MMR014","State_Divi":"Shan (South)","D_Pcode":"MMR014D003","District":"Langkho","TS_Pcode":"MMR014019","Township":"Mongnai","Town_Pcode":"MMR014019701","Town":"Mongnai","Town_MMR4":"မိုးနဲ","Longitude":97.8712,"Latitude":20.5136,"Level":"Main Town","Source":"GAD, Mar 2015","Remark":""}},{"type":"Feature","id":"mmr_pplp1_mimu250k.103","geometry":{"type":"Point","coordinates":[97.84935392428781,15.245391736300151]},"geometry_name":"the_geom","properties":{"SD_Pcode":"MMR011","State_Divi":"Mon","D_Pcode":"MMR011D001","District":"Mawlamyine","TS_Pcode":"MMR011006","Township":"Ye","Town_Pcode":"MMR011006701","Town":"Ye","Town_MMR4":"ရေး","Longitude":97.84935392428781,"Latitude":15.245391736300151,"Level":"Main Town","Source":"GAD, Mar 2015","Remark":""}},{"type":"Feature","id":"mmr_pplp1_mimu250k.104","geometry":{"type":"Point","coordinates":[97.83215,15.50351]},"geometry_name":"the_geom","properties":{"SD_Pcode":"MMR011","State_Divi":"Mon","D_Pcode":"MMR011D001","District":"Mawlamyine","TS_Pcode":"MMR011006","Township":"Ye","Town_Pcode":"MMR011006702","Town":"Lamaing","Town_MMR4":"လမိုင်း","Longitude":97.83215,"Latitude":15.50351,"Level":"Other Town","Source":"GAD, Mar 2015","Remark":""}},{"type":"Feature","id":"mmr_pplp1_mimu250k.105","geometry":{"type":"Point","coordinates":[97.82935,15.03752]},"geometry_name":"the_geom","properties":{"SD_Pcode":"MMR011","State_Divi":"Mon","D_Pcode":"MMR011D001","District":"Mawlamyine","TS_Pcode":"MMR011006","Township":"Ye","Town_Pcode":"MMR011006703","Town":"Khawzar","Town_MMR4":"ခေါဇာ","Longitude":97.82935,"Latitude":15.03752,"Level":"Other Town","Source":"GAD, Mar 2015","Remark":""}},{"type":"Feature","id":"mmr_pplp1_mimu250k.106","geometry":{"type":"Point","coordinates":[97.81933,21.92515]},"geometry_name":"the_geom","properties":{"SD_Pcode":"MMR014","State_Divi":"Shan (South)","D_Pcode":"MMR014D002","District":"Loilen","TS_Pcode":"MMR014015","Township":"Kyethi","Town_Pcode":"MMR014015701","Town":"Kyethi","Town_MMR4":"ကျေးသီး","Longitude":97.81933,"Latitude":21.92515,"Level":"Main Town","Source":"GAD, Mar 2015","Remark":""}},{"type":"Feature","id":"mmr_pplp1_mimu250k.107","geometry":{"type":"Point","coordinates":[97.81871,17.12574]},"geometry_name":"the_geom","properties":{"SD_Pcode":"MMR003","State_Divi":"Kayin","D_Pcode":"MMR003D001","District":"Hpa-An","TS_Pcode":"MMR003002","Township":"Hlaingbwe","Town_Pcode":"MMR003002701","Town":"Hlaingbwe","Town_MMR4":"လှိုင်းဘွဲ့","Longitude":97.81871,"Latitude":17.12574,"Level":"Main Town","Source":"GAD, Mar 2015","Remark":""}},{"type":"Feature","id":"mmr_pplp1_mimu250k.108","geometry":{"type":"Point","coordinates":[97.81785,27.50532]},"geometry_name":"the_geom","properties":{"SD_Pcode":"MMR001","State_Divi":"Kachin","D_Pcode":"MMR001D004","District":"Puta-O","TS_Pcode":"MMR001017","Township":"Nawngmun","Town_Pcode":"MMR001017701","Town":"Nawngmun","Town_MMR4":"နောင်မွန်း","Longitude":97.81785,"Latitude":27.50532,"Level":"Main Town","Source":"GAD, Mar 2015","Remark":""}},{"type":"Feature","id":"mmr_pplp1_mimu250k.109","geometry":{"type":"Point","coordinates":[97.80064245447157,23.951763368518584]},"geometry_name":"the_geom","properties":{"SD_Pcode":"MMR015","State_Divi":"Shan (North)","D_Pcode":"MMR015D002","District":"Muse","TS_Pcode":"MMR015009","Township":"Muse","Town_Pcode":"MMR015009703","Town":"Manhlyoe (Manhero)","Town_MMR4":"(မန်ဟျိုး) မန်ဟီးရိုး","Longitude":97.80064245447157,"Latitude":23.951763368518584,"Level":"Other Town","Source":"GAD, Mar 2015","Remark":""}},{"type":"Feature","id":"mmr_pplp1_mimu250k.110","geometry":{"type":"Point","coordinates":[97.74747,22.95277]},"geometry_name":"the_geom","properties":{"SD_Pcode":"MMR015","State_Divi":"Shan (North)","D_Pcode":"MMR015D001","District":"Lashio","TS_Pcode":"MMR015001","Township":"Lashio","Town_Pcode":"MMR015001701","Town":"Lashio","Town_MMR4":"လားရှိုး","Longitude":97.74747,"Latitude":22.95277,"Level":"District Capital","Source":"GAD, Mar 2015","Remark":""}},{"type":"Feature","id":"mmr_pplp1_mimu250k.111","geometry":{"type":"Point","coordinates":[97.73403,16.1409]},"geometry_name":"the_geom","properties":{"SD_Pcode":"MMR011","State_Divi":"Mon","D_Pcode":"MMR011D001","District":"Mawlamyine","TS_Pcode":"MMR011005","Township":"Mudon","Town_Pcode":"MMR011005702","Town":"Kamarwet","Town_MMR4":"ကမာ၀က်","Longitude":97.73403,"Latitude":16.1409,"Level":"Other Town","Source":"GAD, Mar 2015","Remark":""}},{"type":"Feature","id":"mmr_pplp1_mimu250k.112","geometry":{"type":"Point","coordinates":[97.7333,15.9667]},"geometry_name":"the_geom","properties":{"SD_Pcode":"MMR011","State_Divi":"Mon","D_Pcode":"MMR011D001","District":"Mawlamyine","TS_Pcode":"MMR011004","Township":"Thanbyuzayat","Town_Pcode":"MMR011004701","Town":"Thanbyuzayat","Town_MMR4":"သံဖြူဇရပ်","Longitude":97.7333,"Latitude":15.9667,"Level":"Main Town","Source":"GAD, Mar 2015","Remark":""}},{"type":"Feature","id":"mmr_pplp1_mimu250k.113","geometry":{"type":"Point","coordinates":[97.72671,25.82991]},"geometry_name":"the_geom","properties":{"SD_Pcode":"MMR001","State_Divi":"Kachin","D_Pcode":"MMR001D001","District":"Myitkyina","TS_Pcode":"MMR001003","Township":"Injangyang","Town_Pcode":"MMR001003701","Town":"Injangyang","Town_MMR4":"အင်ဂျန်းယန်","Longitude":97.72671,"Latitude":25.829910000000005,"Level":"Main Town","Source":"GAD, Mar 2015","Remark":""}},{"type":"Feature","id":"mmr_pplp1_mimu250k.114","geometry":{"type":"Point","coordinates":[97.72478,16.25812]},"geometry_name":"the_geom","properties":{"SD_Pcode":"MMR011","State_Divi":"Mon","D_Pcode":"MMR011D001","District":"Mawlamyine","TS_Pcode":"MMR011005","Township":"Mudon","Town_Pcode":"MMR011005701","Town":"Mudon","Town_MMR4":"မုဒုံ","Longitude":97.72478,"Latitude":16.25812,"Level":"Main Town","Source":"GAD, Mar 2015","Remark":""}},{"type":"Feature","id":"mmr_pplp1_mimu250k.115","geometry":{"type":"Point","coordinates":[97.72411,16.37045]},"geometry_name":"the_geom","properties":{"SD_Pcode":"MMR011","State_Divi":"Mon","D_Pcode":"MMR011D001","District":"Mawlamyine","TS_Pcode":"MMR011002","Township":"Kyaikmaraw","Town_Pcode":"MMR011002701","Town":"Kyaikmaraw","Town_MMR4":"ကျိုက်မရော","Longitude":97.72411,"Latitude":16.37045,"Level":"Main Town","Source":"GAD, Mar 2015","Remark":""}},{"type":"Feature","id":"mmr_pplp1_mimu250k.116","geometry":{"type":"Point","coordinates":[97.72369,20.2305]},"geometry_name":"the_geom","properties":{"SD_Pcode":"MMR014","State_Divi":"Shan (South)","D_Pcode":"MMR014D003","District":"Langkho","TS_Pcode":"MMR014020","Township":"Mawkmai","Town_Pcode":"MMR014020701","Town":"Mawkmai","Town_MMR4":"မောက်မယ်","Longitude":97.72369,"Latitude":20.2305,"Level":"Main Town","Source":"GAD, Mar 2015","Remark":""}},{"type":"Feature","id":"mmr_pplp1_mimu250k.117","geometry":{"type":"Point","coordinates":[97.72077,24.19932]},"geometry_name":"the_geom","properties":{"SD_Pcode":"MMR001","State_Divi":"Kachin","D_Pcode":"MMR001D003","District":"Bhamo","TS_Pcode":"MMR001012","Township":"Momauk","Town_Pcode":"MMR001012702","Town":"Lwegel","Town_MMR4":"လွယ်ဂျယ်","Longitude":97.72077,"Latitude":24.19932,"Level":"Other Town","Source":"GAD, Mar 2015","Remark":""}},{"type":"Feature","id":"mmr_pplp1_mimu250k.118","geometry":{"type":"Point","coordinates":[97.72022,20.88912]},"geometry_name":"the_geom","properties":{"SD_Pcode":"MMR014","State_Divi":"Shan (South)","D_Pcode":"MMR014D002","District":"Loilen","TS_Pcode":"MMR014013","Township":"Nansang","Town_Pcode":"MMR014013701","Town":"Nansang","Town_MMR4":"နမ့်စန်","Longitude":97.72022,"Latitude":20.88912,"Level":"Main Town","Source":"GAD, Mar 2015","Remark":""}},{"type":"Feature","id":"mmr_pplp1_mimu250k.119","geometry":{"type":"Point","coordinates":[97.6818,23.837]},"geometry_name":"the_geom","properties":{"SD_Pcode":"MMR015","State_Divi":"Shan (North)","D_Pcode":"MMR015D002","District":"Muse","TS_Pcode":"MMR015010","Township":"Namhkan","Town_Pcode":"MMR015010701","Town":"Namhkan","Town_MMR4":"နမ့်ခမ်း","Longitude":97.6818,"Latitude":23.837,"Level":"Main Town","Source":"GAD, Mar 2015","Remark":""}},{"type":"Feature","id":"mmr_pplp1_mimu250k.120","geometry":{"type":"Point","coordinates":[97.66509,21.27024]},"geometry_name":"the_geom","properties":{"SD_Pcode":"MMR014","State_Divi":"Shan (South)","D_Pcode":"MMR014D002","District":"Loilen","TS_Pcode":"MMR014012","Township":"Laihka","Town_Pcode":"MMR014012701","Town":"Laihka","Town_MMR4":"လဲချား","Longitude":97.66509,"Latitude":21.27024,"Level":"Main Town","Source":"GAD, Mar 2015","Remark":""}},{"type":"Feature","id":"mmr_pplp1_mimu250k.121","geometry":{"type":"Point","coordinates":[97.6627732859,18.6724617739]},"geometry_name":"the_geom","properties":{"SD_Pcode":"MMR002","State_Divi":"Kayah","D_Pcode":"MMR002D002","District":"Bawlake","TS_Pcode":"MMR002007","Township":"Mese","Town_Pcode":"MMR002007701","Town":"Mese","Town_MMR4":"မယ်စဲ","Longitude":97.6627732859,"Latitude":18.6724617739,"Level":"Main Town","Source":"GAD, Mar 2015","Remark":""}},{"type":"Feature","id":"mmr_pplp1_mimu250k.122","geometry":{"type":"Point","coordinates":[97.6529,17.34688]},"geometry_name":"the_geom","properties":{"SD_Pcode":"MMR003","State_Divi":"Kayin","D_Pcode":"MMR003D004","District":"Hpapun","TS_Pcode":"MMR003003","Township":"Hpapun","Town_Pcode":"MMR003003702","Town":"Kamarmaung","Town_MMR4":"ကမမောင်း","Longitude":97.6529,"Latitude":17.34688,"Level":"Other Town","Source":"GAD, Mar 2015","Remark":""}},{"type":"Feature","id":"mmr_pplp1_mimu250k.123","geometry":{"type":"Point","coordinates":[97.63691,16.88076]},"geometry_name":"the_geom","properties":{"SD_Pcode":"MMR003","State_Divi":"Kayin","D_Pcode":"MMR003D001","District":"Hpa-An","TS_Pcode":"MMR003001","Township":"Hpa-An","Town_Pcode":"MMR003001701","Town":"Hpa-An","Town_MMR4":"ဘားအံ","Longitude":97.63691,"Latitude":16.88076,"Level":"State/Region Capital","Source":"GAD, Mar 2015","Remark":""}},{"type":"Feature","id":"mmr_pplp1_mimu250k.124","geometry":{"type":"Point","coordinates":[97.62593,16.48459]},"geometry_name":"the_geom","properties":{"SD_Pcode":"MMR011","State_Divi":"Mon","D_Pcode":"MMR011D001","District":"Mawlamyine","TS_Pcode":"MMR011001","Township":"Mawlamyine","Town_Pcode":"MMR011001701","Town":"Mawlamyine","Town_MMR4":"မော်လမြိုင်","Longitude":97.62593,"Latitude":16.48459,"Level":"State/Region Capital","Source":"GAD, Mar 2015","Remark":""}},{"type":"Feature","id":"mmr_pplp1_mimu250k.125","geometry":{"type":"Point","coordinates":[97.58937,27.28395]},"geometry_name":"the_geom","properties":{"SD_Pcode":"MMR001","State_Divi":"Kachin","D_Pcode":"MMR001D004","District":"Puta-O","TS_Pcode":"MMR001016","Township":"Machanbaw","Town_Pcode":"MMR001016701","Town":"Machanbaw","Town_MMR4":"မချမ်းဘော","Longitude":97.58937,"Latitude":27.28395,"Level":"Main Town","Source":"GAD, Mar 2015","Remark":""}},{"type":"Feature","id":"mmr_pplp1_mimu250k.126","geometry":{"type":"Point","coordinates":[97.5677,26.54373]},"geometry_name":"the_geom","properties":{"SD_Pcode":"MMR001","State_Divi":"Kachin","D_Pcode":"MMR001D004","District":"Puta-O","TS_Pcode":"MMR001015","Township":"Sumprabum","Town_Pcode":"MMR001015701","Town":"Sumprabum","Town_MMR4":"ဆွမ်ပရာဘွမ်","Longitude":97.5677,"Latitude":26.54373,"Level":"Main Town","Source":"GAD, Mar 2015","Remark":""}},{"type":"Feature","id":"mmr_pplp1_mimu250k.127","geometry":{"type":"Point","coordinates":[97.5675,16.08]},"geometry_name":"the_geom","properties":{"SD_Pcode":"MMR011","State_Divi":"Mon","D_Pcode":"MMR011D001","District":"Mawlamyine","TS_Pcode":"MMR011004","Township":"Thanbyuzayat","Town_Pcode":"MMR011004702","Town":"Kyaikkhami","Town_MMR4":"ကျိုက္ခမီ","Longitude":97.5675,"Latitude":16.08,"Level":"Other Town","Source":"GAD, Mar 2015","Remark":""}},{"type":"Feature","id":"mmr_pplp1_mimu250k.128","geometry":{"type":"Point","coordinates":[97.56581,20.92536]},"geometry_name":"the_geom","properties":{"SD_Pcode":"MMR014","State_Divi":"Shan (South)","D_Pcode":"MMR014D002","District":"Loilen","TS_Pcode":"MMR014011","Township":"Loilen","Town_Pcode":"MMR014011701","Town":"Loilen","Town_MMR4":"လွိုင်လင်","Longitude":97.56581,"Latitude":20.92536,"Level":"District Capital","Source":"GAD, Mar 2015","Remark":""}},{"type":"Feature","id":"mmr_pplp1_mimu250k.129","geometry":{"type":"Point","coordinates":[97.55048,16.35125]},"geometry_name":"the_geom","properties":{"SD_Pcode":"MMR011","State_Divi":"Mon","D_Pcode":"MMR011D001","District":"Mawlamyine","TS_Pcode":"MMR011003","Township":"Chaungzon","Town_Pcode":"MMR011003701","Town":"Chaungzon","Town_MMR4":"ချောင်းဆုံ","Longitude":97.55048,"Latitude":16.35125,"Level":"Main Town","Source":"GAD, Mar 2015","Remark":""}},{"type":"Feature","id":"mmr_pplp1_mimu250k.130","geometry":{"type":"Point","coordinates":[97.532,20.991]},"geometry_name":"the_geom","properties":{"SD_Pcode":"MMR014","State_Divi":"Shan (South)","D_Pcode":"MMR014D002","District":"Loilen","TS_Pcode":"MMR014011","Township":"Loilen","Town_Pcode":"MMR014011702","Town":"Pinlon","Town_MMR4":"ပင်လုံ","Longitude":97.532,"Latitude":20.991,"Level":"Other Town","Source":"GAD, Mar 2015","Remark":""}},{"type":"Feature","id":"mmr_pplp1_mimu250k.131","geometry":{"type":"Point","coordinates":[97.52699,21.61149]},"geometry_name":"the_geom","properties":{"SD_Pcode":"MMR014","State_Divi":"Shan (South)","D_Pcode":"MMR014D002","District":"Loilen","TS_Pcode":"MMR014016","Township":"Mongkaing","Town_Pcode":"MMR014016701","Town":"Mongkaing","Town_MMR4":"မိုင်းကိုင်","Longitude":97.52699,"Latitude":21.61149,"Level":"Main Town","Source":"GAD, Mar 2015","Remark":""}},{"type":"Feature","id":"mmr_pplp1_mimu250k.132","geometry":{"type":"Point","coordinates":[97.52073,19.63174]},"geometry_name":"the_geom","properties":{"SD_Pcode":"MMR002","State_Divi":"Kayah","D_Pcode":"MMR002D001","District":"Loikaw","TS_Pcode":"MMR002004","Township":"Shadaw","Town_Pcode":"MMR002004701","Town":"Shadaw","Town_MMR4":"ရှားတော","Longitude":97.52073,"Latitude":19.63174,"Level":"Main Town","Source":"GAD, Mar 2015","Remark":""}},{"type":"Feature","id":"mmr_pplp1_mimu250k.133","geometry":{"type":"Point","coordinates":[97.4995,19.16673]},"geometry_name":"the_geom","properties":{"SD_Pcode":"MMR002","State_Divi":"Kayah","D_Pcode":"MMR002D002","District":"Bawlake","TS_Pcode":"MMR002005","Township":"Bawlake","Town_Pcode":"MMR002005702","Town":"Ywarthit","Town_MMR4":"ရွာသစ်","Longitude":97.4995,"Latitude":19.16673,"Level":"Other Town","Source":"GAD, Mar 2015","Remark":""}},{"type":"Feature","id":"mmr_pplp1_mimu250k.134","geometry":{"type":"Point","coordinates":[97.46127,24.61398]},"geometry_name":"the_geom","properties":{"SD_Pcode":"MMR001","State_Divi":"Kachin","D_Pcode":"MMR001D003","District":"Bhamo","TS_Pcode":"MMR001012","Township":"Momauk","Town_Pcode":"MMR001012703","Town":"Dawthponeyan","Town_MMR4":"ဒေါ့ဖုန်းယန်","Longitude":97.46127,"Latitude":24.61398,"Level":"Other Town","Source":"GAD, Mar 2015","Remark":""}},{"type":"Feature","id":"mmr_pplp1_mimu250k.135","geometry":{"type":"Point","coordinates":[97.45672,16.61679]},"geometry_name":"the_geom","properties":{"SD_Pcode":"MMR011","State_Divi":"Mon","D_Pcode":"MMR011D002","District":"Thaton","TS_Pcode":"MMR011008","Township":"Paung","Town_Pcode":"MMR011008701","Town":"Paung","Town_MMR4":"ပေါင်","Longitude":97.45672,"Latitude":16.61679,"Level":"Main Town","Source":"GAD, Mar 2015","Remark":""}},{"type":"Feature","id":"mmr_pplp1_mimu250k.136","geometry":{"type":"Point","coordinates":[97.44321437729592,18.063056431195335]},"geometry_name":"the_geom","properties":{"SD_Pcode":"MMR003","State_Divi":"Kayin","D_Pcode":"MMR003D004","District":"Hpapun","TS_Pcode":"MMR003003","Township":"Hpapun","Town_Pcode":"MMR003003701","Town":"Hpapun","Town_MMR4":"ဖာပွန်","Longitude":97.44321437729592,"Latitude":18.063056431195335,"Level":"District Capital","Source":"GAD, Mar 2015","Remark":""}},{"type":"Feature","id":"mmr_pplp1_mimu250k.137","geometry":{"type":"Point","coordinates":[97.44281,25.35099]},"geometry_name":"the_geom","properties":{"SD_Pcode":"MMR001","State_Divi":"Kachin","D_Pcode":"MMR001D001","District":"Myitkyina","TS_Pcode":"MMR001002","Township":"Waingmaw","Town_Pcode":"MMR001002701","Town":"Waingmaw","Town_MMR4":"ဝိုင်းမော်","Longitude":97.44281,"Latitude":25.35099,"Level":"Main Town","Source":"GAD, Mar 2015","Remark":""}},{"type":"Feature","id":"mmr_pplp1_mimu250k.138","geometry":{"type":"Point","coordinates":[97.42371,16.69655]},"geometry_name":"the_geom","properties":{"SD_Pcode":"MMR011","State_Divi":"Mon","D_Pcode":"MMR011D002","District":"Thaton","TS_Pcode":"MMR011008","Township":"Paung","Town_Pcode":"MMR011008702","Town":"Zinkyaik","Town_MMR4":"ဇင်းကျိုက်","Longitude":97.42371,"Latitude":16.69655,"Level":"Other Town","Source":"GAD, Mar 2015","Remark":""}},{"type":"Feature","id":"mmr_pplp1_mimu250k.139","geometry":{"type":"Point","coordinates":[97.4159,27.29934]},"geometry_name":"the_geom","properties":{"SD_Pcode":"MMR001","State_Divi":"Kachin","D_Pcode":"MMR001D004","District":"Puta-O","TS_Pcode":"MMR001014","Township":"Puta-O","Town_Pcode":"MMR001014701","Town":"Puta-O","Town_MMR4":"ပူတာအို","Longitude":97.4159,"Latitude":27.29934,"Level":"District Capital","Source":"GAD, Mar 2015","Remark":""}},{"type":"Feature","id":"mmr_pplp1_mimu250k.140","geometry":{"type":"Point","coordinates":[97.40049,23.09361]},"geometry_name":"the_geom","properties":{"SD_Pcode":"MMR015","State_Divi":"Shan (North)","D_Pcode":"MMR015D003","District":"Kyaukme","TS_Pcode":"MMR015015","Township":"Namtu","Town_Pcode":"MMR015015701","Town":"Namtu","Town_MMR4":"နမ္မတူ","Longitude":97.40049,"Latitude":23.09361,"Level":"Main Town","Source":"GAD, Mar 2015","Remark":""}},{"type":"Feature","id":"mmr_pplp1_mimu250k.141","geometry":{"type":"Point","coordinates":[97.39036,25.38749]},"geometry_name":"the_geom","properties":{"SD_Pcode":"MMR001","State_Divi":"Kachin","D_Pcode":"MMR001D001","District":"Myitkyina","TS_Pcode":"MMR001001","Township":"Myitkyina","Town_Pcode":"MMR001001701","Town":"Myitkyina","Town_MMR4":"မြစ်ကြီးနား","Longitude":97.39036,"Latitude":25.387490000000003,"Level":"State/Region Capital","Source":"GAD, Mar 2015","Remark":""}},{"type":"Feature","id":"mmr_pplp1_mimu250k.142","geometry":{"type":"Point","coordinates":[97.3678,16.9197]},"geometry_name":"the_geom","properties":{"SD_Pcode":"MMR011","State_Divi":"Mon","D_Pcode":"MMR011D002","District":"Thaton","TS_Pcode":"MMR011007","Township":"Thaton","Town_Pcode":"MMR011007701","Town":"Thaton","Town_MMR4":"သထုံ","Longitude":97.3678,"Latitude":16.9197,"Level":"District Capital","Source":"GAD, Mar 2015","Remark":""}},{"type":"Feature","id":"mmr_pplp1_mimu250k.143","geometry":{"type":"Point","coordinates":[97.3465314811,24.2509493642]},"geometry_name":"the_geom","properties":{"SD_Pcode":"MMR001","State_Divi":"Kachin","D_Pcode":"MMR001D003","District":"Bhamo","TS_Pcode":"MMR001012","Township":"Momauk","Town_Pcode":"MMR001012701","Town":"Momauk","Town_MMR4":"မိုးမောက်","Longitude":97.3465314811,"Latitude":24.2509493642,"Level":"Main Town","Source":"GAD, Mar 2015","Remark":""}},{"type":"Feature","id":"mmr_pplp1_mimu250k.144","geometry":{"type":"Point","coordinates":[97.3428424157,19.1725581843]},"geometry_name":"the_geom","properties":{"SD_Pcode":"MMR002","State_Divi":"Kayah","D_Pcode":"MMR002D002","District":"Bawlake","TS_Pcode":"MMR002005","Township":"Bawlake","Town_Pcode":"MMR002005701","Town":"Bawlake","Town_MMR4":"ဘောလခဲ","Longitude":97.3428424157,"Latitude":19.1725581843,"Level":"District Capital","Source":"GAD, Mar 2015","Remark":""}},{"type":"Feature","id":"mmr_pplp1_mimu250k.145","geometry":{"type":"Point","coordinates":[97.31592,18.87063]},"geometry_name":"the_geom","properties":{"SD_Pcode":"MMR002","State_Divi":"Kayah","D_Pcode":"MMR002D002","District":"Bawlake","TS_Pcode":"MMR002006","Township":"Hpasawng","Town_Pcode":"MMR002006701","Town":"Hpasawng","Town_MMR4":"ဖားဆောင်း","Longitude":97.31592,"Latitude":18.87063,"Level":"Main Town","Source":"GAD, Mar 2015","Remark":""}},{"type":"Feature","id":"mmr_pplp1_mimu250k.146","geometry":{"type":"Point","coordinates":[97.30482,17.06022]},"geometry_name":"the_geom","properties":{"SD_Pcode":"MMR011","State_Divi":"Mon","D_Pcode":"MMR011D002","District":"Thaton","TS_Pcode":"MMR011007","Township":"Thaton","Town_Pcode":"MMR011007702","Town":"Thuwunnawady","Town_MMR4":"သုဝဏ္ဏဝတီ","Longitude":97.30482,"Latitude":17.06022,"Level":"Other Town","Source":"GAD, Mar 2015","Remark":""}},{"type":"Feature","id":"mmr_pplp1_mimu250k.147","geometry":{"type":"Point","coordinates":[97.2981,22.61894]},"geometry_name":"the_geom","properties":{"SD_Pcode":"MMR015","State_Divi":"Shan (North)","D_Pcode":"MMR015D003","District":"Kyaukme","TS_Pcode":"MMR015014","Township":"Hsipaw","Town_Pcode":"MMR015014701","Town":"Hsipaw","Town_MMR4":"သီပေါ","Longitude":97.2981,"Latitude":22.61894,"Level":"Main Town","Source":"GAD, Mar 2015","Remark":""}},{"type":"Feature","id":"mmr_pplp1_mimu250k.148","geometry":{"type":"Point","coordinates":[97.29311,24.11962]},"geometry_name":"the_geom","properties":{"SD_Pcode":"MMR001","State_Divi":"Kachin","D_Pcode":"MMR001D003","District":"Bhamo","TS_Pcode":"MMR001013","Township":"Mansi","Town_Pcode":"MMR001013701","Town":"Mansi","Town_MMR4":"မံစီ","Longitude":97.29311,"Latitude":24.11962,"Level":"Main Town","Source":"GAD, Mar 2015","Remark":""}},{"type":"Feature","id":"mmr_pplp1_mimu250k.149","geometry":{"type":"Point","coordinates":[97.251903882,20.1622695921]},"geometry_name":"the_geom","properties":{"SD_Pcode":"MMR014","State_Divi":"Shan (South)","D_Pcode":"MMR014S002","District":"Pa-O Self-Administered Zone","TS_Pcode":"MMR014004","Township":"Hsihseng","Town_Pcode":"MMR014004701","Town":"Hsihseng","Town_MMR4":"ဆီဆိုင်","Longitude":97.251903882,"Latitude":20.1622695921,"Level":"Main Town","Source":"GAD, Mar 2015","Remark":""}},{"type":"Feature","id":"mmr_pplp1_mimu250k.150","geometry":{"type":"Point","coordinates":[97.23931,17.21987]},"geometry_name":"the_geom","properties":{"SD_Pcode":"MMR011","State_Divi":"Mon","D_Pcode":"MMR011D002","District":"Thaton","TS_Pcode":"MMR011010","Township":"Bilin","Town_Pcode":"MMR011010701","Town":"Bilin","Town_MMR4":"ဘီးလင်း","Longitude":97.23931,"Latitude":17.21987,"Level":"Main Town","Source":"GAD, Mar 2015","Remark":""}},{"type":"Feature","id":"mmr_pplp1_mimu250k.151","geometry":{"type":"Point","coordinates":[97.23441,24.25493]},"geometry_name":"the_geom","properties":{"SD_Pcode":"MMR001","State_Divi":"Kachin","D_Pcode":"MMR001D003","District":"Bhamo","TS_Pcode":"MMR001010","Township":"Bhamo","Town_Pcode":"MMR001010701","Town":"Bhamo","Town_MMR4":"ဗန်းမော်","Longitude":97.23441,"Latitude":24.25493,"Level":"District Capital","Source":"GAD, Mar 2015","Remark":""}},{"type":"Feature","id":"mmr_pplp1_mimu250k.152","geometry":{"type":"Point","coordinates":[97.20993,19.67424]},"geometry_name":"the_geom","properties":{"SD_Pcode":"MMR002","State_Divi":"Kayah","D_Pcode":"MMR002D001","District":"Loikaw","TS_Pcode":"MMR002001","Township":"Loikaw","Town_Pcode":"MMR002001701","Town":"Loikaw","Town_MMR4":"လွိုင်ကော်","Longitude":97.20993,"Latitude":19.67424,"Level":"State/Region Capital","Source":"GAD, Mar 2015","Remark":""}},{"type":"Feature","id":"mmr_pplp1_mimu250k.153","geometry":{"type":"Point","coordinates":[97.17024,20.79743]},"geometry_name":"the_geom","properties":{"SD_Pcode":"MMR014","State_Divi":"Shan (South)","D_Pcode":"MMR014S002","District":"Pa-O Self-Administered Zone","TS_Pcode":"MMR014003","Township":"Hopong","Town_Pcode":"MMR014003701","Town":"Hopong","Town_MMR4":"ဟိုပုံး","Longitude":97.17024,"Latitude":20.79743,"Level":"Main Town","Source":"GAD, Mar 2015","Remark":""}},{"type":"Feature","id":"mmr_pplp1_mimu250k.154","geometry":{"type":"Point","coordinates":[97.16126,22.96407]},"geometry_name":"the_geom","properties":{"SD_Pcode":"MMR015","State_Divi":"Shan (North)","D_Pcode":"MMR015S001","District":"Pa Laung Self-Administered Zone","TS_Pcode":"MMR015016","Township":"Namhsan","Town_Pcode":"MMR015016701","Town":"Namhsan","Town_MMR4":"နမ့်ဆန်","Longitude":97.16126,"Latitude":22.96407,"Level":"Main Town","Source":"GAD, Mar 2015","Remark":""}},{"type":"Feature","id":"mmr_pplp1_mimu250k.155","geometry":{"type":"Point","coordinates":[97.15881,19.53832]},"geometry_name":"the_geom","properties":{"SD_Pcode":"MMR002","State_Divi":"Kayah","D_Pcode":"MMR002D001","District":"Loikaw","TS_Pcode":"MMR002002","Township":"Demoso","Town_Pcode":"MMR002002701","Town":"Demoso","Town_MMR4":"ဒီးမော့ဆို","Longitude":97.15881,"Latitude":19.53832,"Level":"Main Town","Source":"GAD, Mar 2015","Remark":""}},{"type":"Feature","id":"mmr_pplp1_mimu250k.156","geometry":{"type":"Point","coordinates":[97.1279939299,19.4138694754]},"geometry_name":"the_geom","properties":{"SD_Pcode":"MMR002","State_Divi":"Kayah","D_Pcode":"MMR002D001","District":"Loikaw","TS_Pcode":"MMR002003","Township":"Hpruso","Town_Pcode":"MMR002003701","Town":"Hpruso","Town_MMR4":"ဖရူဆို","Longitude":97.1279939299,"Latitude":19.4138694754,"Level":"Main Town","Source":"GAD, Mar 2015","Remark":""}},{"type":"Feature","id":"mmr_pplp1_mimu250k.157","geometry":{"type":"Point","coordinates":[97.1222174261,23.246479231]},"geometry_name":"the_geom","properties":{"SD_Pcode":"MMR015","State_Divi":"Shan (North)","D_Pcode":"MMR015S001","District":"Pa Laung Self-Administered Zone","TS_Pcode":"MMR015019","Township":"Manton","Town_Pcode":"MMR015019701","Town":"Manton","Town_MMR4":"မန်တုံ","Longitude":97.1222174261,"Latitude":23.246479231,"Level":"Main Town","Source":"GAD, Mar 2015","Remark":""}},{"type":"Feature","id":"mmr_pplp1_mimu250k.158","geometry":{"type":"Point","coordinates":[97.03917,24.77923]},"geometry_name":"the_geom","properties":{"SD_Pcode":"MMR001","State_Divi":"Kachin","D_Pcode":"MMR001D001","District":"Myitkyina","TS_Pcode":"MMR001001","Township":"Myitkyina","Town_Pcode":"MMR001001702","Town":"Sinbo","Town_MMR4":"ဆင်ဘို","Longitude":97.03917,"Latitude":24.77923,"Level":"Other Town","Source":"GAD, Mar 2015","Remark":""}},{"type":"Feature","id":"mmr_pplp1_mimu250k.159","geometry":{"type":"Point","coordinates":[97.03671,22.54172]},"geometry_name":"the_geom","properties":{"SD_Pcode":"MMR015","State_Divi":"Shan (North)","D_Pcode":"MMR015D003","District":"Kyaukme","TS_Pcode":"MMR015012","Township":"Kyaukme","Town_Pcode":"MMR015012701","Town":"Kyaukme","Town_MMR4":"ကျောက်မဲ","Longitude":97.03671,"Latitude":22.54172,"Level":"District Capital","Source":"GAD, Mar 2015","Remark":""}},{"type":"Feature","id":"mmr_pplp1_mimu250k.160","geometry":{"type":"Point","coordinates":[97.03598,20.77477]},"geometry_name":"the_geom","properties":{"SD_Pcode":"MMR014","State_Divi":"Shan (South)","D_Pcode":"MMR014D001","District":"Taunggyi","TS_Pcode":"MMR014001","Township":"Taunggyi","Town_Pcode":"MMR014001701","Town":"Taunggyi","Town_MMR4":"တောင်ကြီး","Longitude":97.03598,"Latitude":20.77477,"Level":"State/Region Capital","Source":"GAD, Mar 2015","Remark":""}},{"type":"Feature","id":"mmr_pplp1_mimu250k.161","geometry":{"type":"Point","coordinates":[97.024,20.371]},"geometry_name":"the_geom","properties":{"SD_Pcode":"MMR014","State_Divi":"Shan (South)","D_Pcode":"MMR014D001","District":"Taunggyi","TS_Pcode":"MMR014001","Township":"Taunggyi","Town_Pcode":"MMR014001703","Town":"Kyauktalonegyi","Town_MMR4":"ကျောက်တလုံးကြီး","Longitude":97.024,"Latitude":20.371,"Level":"Other Town","Source":"GAD, Mar 2015","Remark":""}},{"type":"Feature","id":"mmr_pplp1_mimu250k.162","geometry":{"type":"Point","coordinates":[97.01989,17.31156]},"geometry_name":"the_geom","properties":{"SD_Pcode":"MMR011","State_Divi":"Mon","D_Pcode":"MMR011D002","District":"Thaton","TS_Pcode":"MMR011009","Township":"Kyaikto","Town_Pcode":"MMR011009701","Town":"Kyaikto","Town_MMR4":"ကျိုက်ထို","Longitude":97.01989,"Latitude":17.31156,"Level":"Main Town","Source":"GAD, Mar 2015","Remark":""}},{"type":"Feature","id":"mmr_pplp1_mimu250k.163","geometry":{"type":"Point","coordinates":[97.00896,25.37835]},"geometry_name":"the_geom","properties":{"SD_Pcode":"MMR001","State_Divi":"Kachin","D_Pcode":"MMR001D002","District":"Mohnyin","TS_Pcode":"MMR001008","Township":"Mogaung","Town_Pcode":"MMR001008702","Town":"Nammatee","Town_MMR4":"နမ္မတီး","Longitude":97.00895999999999,"Latitude":25.37835,"Level":"Other Town","Source":"GAD, Mar 2015","Remark":""}},{"type":"Feature","id":"mmr_pplp1_mimu250k.164","geometry":{"type":"Point","coordinates":[97.00831,19.86348]},"geometry_name":"the_geom","properties":{"SD_Pcode":"MMR014","State_Divi":"Shan (South)","D_Pcode":"MMR014D001","District":"Taunggyi","TS_Pcode":"MMR014010","Township":"Pekon","Town_Pcode":"MMR014010701","Town":"Pekon","Town_MMR4":"ဖယ်ခုံ","Longitude":97.00831,"Latitude":19.86348,"Level":"Main Town","Source":"GAD, Mar 2015","Remark":""}},{"type":"Feature","id":"mmr_pplp1_mimu250k.165","geometry":{"type":"Point","coordinates":[96.99882,20.77475]},"geometry_name":"the_geom","properties":{"SD_Pcode":"MMR014","State_Divi":"Shan (South)","D_Pcode":"MMR014D001","District":"Taunggyi","TS_Pcode":"MMR014001","Township":"Taunggyi","Town_Pcode":"MMR014001702","Town":"Ayetharyar","Town_MMR4":"အေးသာယာ","Longitude":96.99882,"Latitude":20.77475,"Level":"Other Town","Source":"GAD, Mar 2015","Remark":""}},{"type":"Feature","id":"mmr_pplp1_mimu250k.166","geometry":{"type":"Point","coordinates":[96.98402,22.77316]},"geometry_name":"the_geom","properties":{"SD_Pcode":"MMR015","State_Divi":"Shan (North)","D_Pcode":"MMR015D003","District":"Kyaukme","TS_Pcode":"MMR015012","Township":"Kyaukme","Town_Pcode":"MMR015012702","Town":"Mongngawt","Town_MMR4":"မိုင်းငေါ့","Longitude":96.98402,"Latitude":22.77316,"Level":"Other Town","Source":"GAD, Mar 2015","Remark":""}},{"type":"Feature","id":"mmr_pplp1_mimu250k.167","geometry":{"type":"Point","coordinates":[96.94038,25.30274]},"geometry_name":"the_geom","properties":{"SD_Pcode":"MMR001","State_Divi":"Kachin","D_Pcode":"MMR001D002","District":"Mohnyin","TS_Pcode":"MMR001008","Township":"Mogaung","Town_Pcode":"MMR001008701","Town":"Mogaung","Town_MMR4":"မိုးကောင်း","Longitude":96.94038,"Latitude":25.30274,"Level":"Main Town","Source":"GAD, Mar 2015","Remark":""}},{"type":"Feature","id":"mmr_pplp1_mimu250k.168","geometry":{"type":"Point","coordinates":[96.93614,20.76015]},"geometry_name":"the_geom","properties":{"SD_Pcode":"MMR014","State_Divi":"Shan (South)","D_Pcode":"MMR014D001","District":"Taunggyi","TS_Pcode":"MMR014001","Township":"Taunggyi","Town_Pcode":"MMR014001704","Town":"Shwenyaung","Town_MMR4":"ရွှေညောင်","Longitude":96.93614,"Latitude":20.76015,"Level":"Other Town","Source":"GAD, Mar 2015","Remark":""}},{"type":"Feature","id":"mmr_pplp1_mimu250k.169","geometry":{"type":"Point","coordinates":[96.93206,20.65957]},"geometry_name":"the_geom","properties":{"SD_Pcode":"MMR014","State_Divi":"Shan (South)","D_Pcode":"MMR014D001","District":"Taunggyi","TS_Pcode":"MMR014002","Township":"Nyaungshwe","Town_Pcode":"MMR014002701","Town":"Nyaungshwe","Town_MMR4":"ညောင်ရွှေ","Longitude":96.93206,"Latitude":20.65957,"Level":"Main Town","Source":"GAD, Mar 2015","Remark":""}},{"type":"Feature","id":"mmr_pplp1_mimu250k.170","geometry":{"type":"Point","coordinates":[96.92252,21.63124]},"geometry_name":"the_geom","properties":{"SD_Pcode":"MMR014","State_Divi":"Shan (South)","D_Pcode":"MMR014D001","District":"Taunggyi","TS_Pcode":"MMR014008","Township":"Lawksawk","Town_Pcode":"MMR014008702","Town":"Intaw","Town_MMR4":"အင်တော","Longitude":96.92252,"Latitude":21.63124,"Level":"Other Town","Source":"GAD, Mar 2015","Remark":""}},{"type":"Feature","id":"mmr_pplp1_mimu250k.171","geometry":{"type":"Point","coordinates":[96.87767,17.92304]},"geometry_name":"the_geom","properties":{"SD_Pcode":"MMR007","State_Divi":"Bago (East)","D_Pcode":"MMR007D001","District":"Bago","TS_Pcode":"MMR007008","Township":"Shwegyin","Town_Pcode":"MMR007008701","Town":"Shwegyin","Town_MMR4":"ရွှေကျင်","Longitude":96.87767,"Latitude":17.92304,"Level":"Main Town","Source":"GAD, Mar 2015","Remark":""}},{"type":"Feature","id":"mmr_pplp1_mimu250k.172","geometry":{"type":"Point","coordinates":[96.86518,21.24664]},"geometry_name":"the_geom","properties":{"SD_Pcode":"MMR014","State_Divi":"Shan (South)","D_Pcode":"MMR014D001","District":"Taunggyi","TS_Pcode":"MMR014008","Township":"Lawksawk","Town_Pcode":"MMR014008701","Town":"Lawksawk","Town_MMR4":"ရပ်စောက်","Longitude":96.86518,"Latitude":21.24664,"Level":"Main Town","Source":"GAD, Mar 2015","Remark":""}},{"type":"Feature","id":"mmr_pplp1_mimu250k.173","geometry":{"type":"Point","coordinates":[96.84535,17.91491]},"geometry_name":"the_geom","properties":{"SD_Pcode":"MMR007","State_Divi":"Bago (East)","D_Pcode":"MMR007D001","District":"Bago","TS_Pcode":"MMR007005","Township":"Nyaunglebin","Town_Pcode":"MMR007005702","Town":"Madauk","Town_MMR4":"မဒေါက်","Longitude":96.84534999999998,"Latitude":17.91491,"Level":"Other Town","Source":"GAD, Mar 2015","Remark":""}},{"type":"Feature","id":"mmr_pplp1_mimu250k.174","geometry":{"type":"Point","coordinates":[96.80606,24.20695]},"geometry_name":"the_geom","properties":{"SD_Pcode":"MMR001","State_Divi":"Kachin","D_Pcode":"MMR001D003","District":"Bhamo","TS_Pcode":"MMR001011","Township":"Shwegu","Town_Pcode":"MMR001011701","Town":"Shwegu","Town_MMR4":"ရွှေကူ","Longitude":96.80606,"Latitude":24.20695,"Level":"Main Town","Source":"GAD, Mar 2015","Remark":""}},{"type":"Feature","id":"mmr_pplp1_mimu250k.175","geometry":{"type":"Point","coordinates":[96.79895,22.33003]},"geometry_name":"the_geom","properties":{"SD_Pcode":"MMR015","State_Divi":"Shan (North)","D_Pcode":"MMR015D003","District":"Kyaukme","TS_Pcode":"MMR015013","Township":"Nawnghkio","Town_Pcode":"MMR015013701","Town":"Nawnghkio","Town_MMR4":"နောင်ချို","Longitude":96.79895,"Latitude":22.33003,"Level":"Main Town","Source":"GAD, Mar 2015","Remark":""}},{"type":"Feature","id":"mmr_pplp1_mimu250k.176","geometry":{"type":"Point","coordinates":[96.78565,18.91451]},"geometry_name":"the_geom","properties":{"SD_Pcode":"MMR003","State_Divi":"Kayin","D_Pcode":"MMR003D001","District":"Hpa-An","TS_Pcode":"MMR003004","Township":"Thandaunggyi","Town_Pcode":"MMR003004704","Town":"Baw Ga Li","Town_MMR4":"ဘောဂလိ","Longitude":96.78565,"Latitude":18.91451,"Level":"Other Town","Source":"GAD, Mar 2015","Remark":""}},{"type":"Feature","id":"mmr_pplp1_mimu250k.177","geometry":{"type":"Point","coordinates":[96.78219,20.12439]},"geometry_name":"the_geom","properties":{"SD_Pcode":"MMR014","State_Divi":"Shan (South)","D_Pcode":"MMR014S002","District":"Pa-O Self-Administered Zone","TS_Pcode":"MMR014009","Township":"Pinlaung","Town_Pcode":"MMR014009701","Town":"Pinlaung","Town_MMR4":"ပင်လောင်း","Longitude":96.78219,"Latitude":20.12439,"Level":"Main Town","Source":"GAD, Mar 2015","Remark":""}},{"type":"Feature","id":"mmr_pplp1_mimu250k.178","geometry":{"type":"Point","coordinates":[96.76861741664261,18.327640030311777]},"geometry_name":"the_geom","properties":{"SD_Pcode":"MMR007","State_Divi":"Bago (East)","D_Pcode":"MMR007D002","District":"Taungoo","TS_Pcode":"MMR007011","Township":"Kyaukkyi","Town_Pcode":"MMR007011701","Town":"Kyaukkyi","Town_MMR4":"ကျောက်ကြီး","Longitude":96.76861741664261,"Latitude":18.327640030311777,"Level":"Main Town","Source":"GAD, Mar 2015","Remark":""}},{"type":"Feature","id":"mmr_pplp1_mimu250k.179","geometry":{"type":"Point","coordinates":[96.75691,20.29326]},"geometry_name":"the_geom","properties":{"SD_Pcode":"MMR014","State_Divi":"Shan (South)","D_Pcode":"MMR014S002","District":"Pa-O Self-Administered Zone","TS_Pcode":"MMR014009","Township":"Pinlaung","Town_Pcode":"MMR014009702","Town":"Naungtayar","Town_MMR4":"နောင်တရား","Longitude":96.75691,"Latitude":20.29326,"Level":"Other Town","Source":"GAD, Mar 2015","Remark":""}},{"type":"Feature","id":"mmr_pplp1_mimu250k.180","geometry":{"type":"Point","coordinates":[96.72151,17.95323]},"geometry_name":"the_geom","properties":{"SD_Pcode":"MMR007","State_Divi":"Bago (East)","D_Pcode":"MMR007D001","District":"Bago","TS_Pcode":"MMR007005","Township":"Nyaunglebin","Town_Pcode":"MMR007005701","Town":"Nyaunglebin","Town_MMR4":"ညောင်လေးပင်","Longitude":96.72151,"Latitude":17.95323,"Level":"Main Town","Source":"GAD, Mar 2015","Remark":""}},{"type":"Feature","id":"mmr_pplp1_mimu250k.181","geometry":{"type":"Point","coordinates":[96.71655,26.35797]},"geometry_name":"the_geom","properties":{"SD_Pcode":"MMR001","State_Divi":"Kachin","D_Pcode":"MMR001D001","District":"Myitkyina","TS_Pcode":"MMR001004","Township":"Tanai","Town_Pcode":"MMR001004701","Town":"Tanai","Town_MMR4":"တနိုင်း","Longitude":96.71655,"Latitude":26.35797,"Level":"Main Town","Source":"GAD, Mar 2015","Remark":""}},{"type":"Feature","id":"mmr_pplp1_mimu250k.182","geometry":{"type":"Point","coordinates":[96.71597,17.87517]},"geometry_name":"the_geom","properties":{"SD_Pcode":"MMR007","State_Divi":"Bago (East)","D_Pcode":"MMR007D001","District":"Bago","TS_Pcode":"MMR007005","Township":"Nyaunglebin","Town_Pcode":"MMR007005703","Town":"Pyuntasa","Town_MMR4":"ပြွန်တန်ဆာ","Longitude":96.71597,"Latitude":17.87517,"Level":"Other Town","Source":"GAD, Mar 2015","Remark":""}},{"type":"Feature","id":"mmr_pplp1_mimu250k.183","geometry":{"type":"Point","coordinates":[96.71153,25.5226]},"geometry_name":"the_geom","properties":{"SD_Pcode":"MMR001","State_Divi":"Kachin","D_Pcode":"MMR001D002","District":"Mohnyin","TS_Pcode":"MMR001009","Township":"Hpakant","Town_Pcode":"MMR001009702","Town":"Kamaing","Town_MMR4":"ကာမိုင်း","Longitude":96.71153,"Latitude":25.5226,"Level":"Other Town","Source":"GAD, Mar 2015","Remark":""}},{"type":"Feature","id":"mmr_pplp1_mimu250k.184","geometry":{"type":"Point","coordinates":[96.68234,17.4836]},"geometry_name":"the_geom","properties":{"SD_Pcode":"MMR007","State_Divi":"Bago (East)","D_Pcode":"MMR007D001","District":"Bago","TS_Pcode":"MMR007004","Township":"Waw","Town_Pcode":"MMR007004701","Town":"Waw","Town_MMR4":"ဝေါ","Longitude":96.68234,"Latitude":17.4836,"Level":"Main Town","Source":"GAD, Mar 2015","Remark":""}},{"type":"Feature","id":"mmr_pplp1_mimu250k.185","geometry":{"type":"Point","coordinates":[96.67547,19.07339]},"geometry_name":"the_geom","properties":{"SD_Pcode":"MMR003","State_Divi":"Kayin","D_Pcode":"MMR003D001","District":"Hpa-An","TS_Pcode":"MMR003004","Township":"Thandaunggyi","Town_Pcode":"MMR003004701","Town":"Thandaunggyi","Town_MMR4":"သံတောင်ကြီး","Longitude":96.67547,"Latitude":19.07339,"Level":"Main Town","Source":"GAD, Mar 2015","Remark":""}},{"type":"Feature","id":"mmr_pplp1_mimu250k.186","geometry":{"type":"Point","coordinates":[96.66999,23.11422]},"geometry_name":"the_geom","properties":{"SD_Pcode":"MMR015","State_Divi":"Shan (North)","D_Pcode":"MMR015D008","District":"Mongmit","TS_Pcode":"MMR015017","Township":"Mongmit","Town_Pcode":"MMR015017701","Town":"Mongmit","Town_MMR4":"မိုးမိတ်","Longitude":96.66999,"Latitude":23.11422,"Level":"District Capital","Source":"GAD, Mar 2015","Remark":""}},{"type":"Feature","id":"mmr_pplp1_mimu250k.187","geometry":{"type":"Point","coordinates":[96.66969,17.78967]},"geometry_name":"the_geom","properties":{"SD_Pcode":"MMR007","State_Divi":"Bago (East)","D_Pcode":"MMR007D001","District":"Bago","TS_Pcode":"MMR007007","Township":"Daik-U","Town_Pcode":"MMR007007701","Town":"Daik-U","Town_MMR4":"ဒိုက်ဦး","Longitude":96.66969,"Latitude":17.78967,"Level":"Main Town","Source":"GAD, Mar 2015","Remark":""}},{"type":"Feature","id":"mmr_pplp1_mimu250k.188","geometry":{"type":"Point","coordinates":[96.66836,18.0699]},"geometry_name":"the_geom","properties":{"SD_Pcode":"MMR007","State_Divi":"Bago (East)","D_Pcode":"MMR007D001","District":"Bago","TS_Pcode":"MMR007005","Township":"Nyaunglebin","Town_Pcode":"MMR007005704","Town":"Peinzalok","Town_MMR4":"ပိန်းဇလုပ်","Longitude":96.66836,"Latitude":18.0699,"Level":"Other Town","Source":"GAD, Mar 2015","Remark":""}},{"type":"Feature","id":"mmr_pplp1_mimu250k.189","geometry":{"type":"Point","coordinates":[96.66279,20.94158]},"geometry_name":"the_geom","properties":{"SD_Pcode":"MMR014","State_Divi":"Shan (South)","D_Pcode":"MMR014S001","District":"Danu Self-Administered Zone","TS_Pcode":"MMR014006","Township":"Pindaya","Town_Pcode":"MMR014006701","Town":"Pindaya","Town_MMR4":"ပင်းတယ","Longitude":96.66279,"Latitude":20.94158,"Level":"Main Town","Source":"GAD, Mar 2015","Remark":""}},{"type":"Feature","id":"mmr_pplp1_mimu250k.190","geometry":{"type":"Point","coordinates":[96.63584,20.66122]},"geometry_name":"the_geom","properties":{"SD_Pcode":"MMR014","State_Divi":"Shan (South)","D_Pcode":"MMR014D001","District":"Taunggyi","TS_Pcode":"MMR014005","Township":"Kalaw","Town_Pcode":"MMR014005702","Town":"Aungpan","Town_MMR4":"အောင်ပန်း","Longitude":96.63584,"Latitude":20.66122,"Level":"Other Town","Source":"GAD, Mar 2015","Remark":""}},{"type":"Feature","id":"mmr_pplp1_mimu250k.191","geometry":{"type":"Point","coordinates":[96.6552155933,24.478563394]},"geometry_name":"the_geom","properties":{"SD_Pcode":"MMR001","State_Divi":"Kachin","D_Pcode":"MMR001D003","District":"Bhamo","TS_Pcode":"MMR001011","Township":"Shwegu","Town_Pcode":"MMR001011702","Town":"Myo Hla","Town_MMR4":"မြို့လှ","Longitude":96.6552155933,"Latitude":24.478563394,"Level":"Other Town","Source":"GAD, Mar 2015","Remark":""}},{"type":"Feature","id":"mmr_pplp1_mimu250k.192","geometry":{"type":"Point","coordinates":[96.6292,23.47292]},"geometry_name":"the_geom","properties":{"SD_Pcode":"MMR015","State_Divi":"Shan (North)","D_Pcode":"MMR015D008","District":"Mongmit","TS_Pcode":"MMR015018","Township":"Mabein","Town_Pcode":"MMR015018701","Town":"Mabein","Town_MMR4":"မဘိမ်း","Longitude":96.6292,"Latitude":23.47292,"Level":"Main Town","Source":"GAD, Mar 2015","Remark":""}},{"type":"Feature","id":"mmr_pplp1_mimu250k.193","geometry":{"type":"Point","coordinates":[96.62431,22.7908]},"geometry_name":"the_geom","properties":{"SD_Pcode":"MMR015","State_Divi":"Shan (North)","D_Pcode":"MMR015D003","District":"Kyaukme","TS_Pcode":"MMR015012","Township":"Kyaukme","Town_Pcode":"MMR015012703","Town":"Monglon","Town_MMR4":"မိုင်းလုံ","Longitude":96.62431,"Latitude":22.7908,"Level":"Other Town","Source":"GAD, Mar 2015","Remark":""}},{"type":"Feature","id":"mmr_pplp1_mimu250k.194","geometry":{"type":"Point","coordinates":[96.61391,18.15867]},"geometry_name":"the_geom","properties":{"SD_Pcode":"MMR007","State_Divi":"Bago (East)","D_Pcode":"MMR007D001","District":"Bago","TS_Pcode":"MMR007006","Township":"Kyauktaga","Town_Pcode":"MMR007006701","Town":"Kyauktaga","Town_MMR4":"ကျောက်တံခါး","Longitude":96.61391,"Latitude":18.15867,"Level":"Main Town","Source":"GAD, Mar 2015","Remark":""}},{"type":"Feature","id":"mmr_pplp1_mimu250k.195","geometry":{"type":"Point","coordinates":[96.59657,17.02939]},"geometry_name":"the_geom","properties":{"SD_Pcode":"MMR007","State_Divi":"Bago (East)","D_Pcode":"MMR007D001","District":"Bago","TS_Pcode":"MMR007003","Township":"Kawa","Town_Pcode":"MMR007003702","Town":"Thetkala","Town_MMR4":"သက္ကလ","Longitude":96.59657,"Latitude":17.02939,"Level":"Other Town","Source":"GAD, Mar 2015","Remark":""}},{"type":"Feature","id":"mmr_pplp1_mimu250k.196","geometry":{"type":"Point","coordinates":[96.58266,19.02175]},"geometry_name":"the_geom","properties":{"SD_Pcode":"MMR003","State_Divi":"Kayin","D_Pcode":"MMR003D001","District":"Hpa-An","TS_Pcode":"MMR003004","Township":"Thandaunggyi","Town_Pcode":"MMR003004702","Town":"Thandaung","Town_MMR4":"သံတောင်","Longitude":96.58266,"Latitude":19.02175,"Level":"Other Town","Source":"GAD, Mar 2015","Remark":""}},{"type":"Feature","id":"mmr_pplp1_mimu250k.197","geometry":{"type":"Point","coordinates":[96.58097,19.22235]},"geometry_name":"the_geom","properties":{"SD_Pcode":"MMR003","State_Divi":"Kayin","D_Pcode":"MMR003D001","District":"Hpa-An","TS_Pcode":"MMR003004","Township":"Thandaunggyi","Town_Pcode":"MMR003004703","Town":"Leik Tho","Town_MMR4":"လိပ်သို","Longitude":96.58097,"Latitude":19.22235,"Level":"Other Town","Source":"GAD, Mar 2015","Remark":""}},{"type":"Feature","id":"mmr_pplp1_mimu250k.198","geometry":{"type":"Point","coordinates":[96.57664,17.28903]},"geometry_name":"the_geom","properties":{"SD_Pcode":"MMR007","State_Divi":"Bago (East)","D_Pcode":"MMR007D001","District":"Bago","TS_Pcode":"MMR007002","Township":"Thanatpin","Town_Pcode":"MMR007002701","Town":"Thanatpin","Town_MMR4":"သနပ်ပင်","Longitude":96.57664,"Latitude":17.28903,"Level":"Main Town","Source":"GAD, Mar 2015","Remark":""}},{"type":"Feature","id":"mmr_pplp1_mimu250k.199","geometry":{"type":"Point","coordinates":[96.56886,18.22271]},"geometry_name":"the_geom","properties":{"SD_Pcode":"MMR007","State_Divi":"Bago (East)","D_Pcode":"MMR007D001","District":"Bago","TS_Pcode":"MMR007006","Township":"Kyauktaga","Town_Pcode":"MMR007006702","Town":"Penwegon","Town_MMR4":"ပဲနွယ်ကုန်း","Longitude":96.56886,"Latitude":18.22271,"Level":"Other Town","Source":"GAD, Mar 2015","Remark":""}},{"type":"Feature","id":"mmr_pplp1_mimu250k.200","geometry":{"type":"Point","coordinates":[96.5605,16.90544]},"geometry_name":"the_geom","properties":{"SD_Pcode":"MMR013","State_Divi":"Yangon","D_Pcode":"MMR013D003","District":"Yangon (South)","TS_Pcode":"MMR013026","Township":"Kayan","Town_Pcode":"MMR013026701","Town":"Kayan","Town_MMR4":"ခရမ်း","Longitude":96.5605,"Latitude":16.90544,"Level":"Main Town","Source":"GAD, Mar 2015","Remark":""}},{"type":"Feature","id":"mmr_pplp1_mimu250k.201","geometry":{"type":"Point","coordinates":[96.55864,20.62418]},"geometry_name":"the_geom","properties":{"SD_Pcode":"MMR014","State_Divi":"Shan (South)","D_Pcode":"MMR014D001","District":"Taunggyi","TS_Pcode":"MMR014005","Township":"Kalaw","Town_Pcode":"MMR014005701","Town":"Kalaw","Town_MMR4":"ကလော","Longitude":96.55864,"Latitude":20.62418,"Level":"Main Town","Source":"GAD, Mar 2015","Remark":""}},{"type":"Feature","id":"mmr_pplp1_mimu250k.202","geometry":{"type":"Point","coordinates":[96.53949,16.64788]},"geometry_name":"the_geom","properties":{"SD_Pcode":"MMR013","State_Divi":"Yangon","D_Pcode":"MMR013D003","District":"Yangon (South)","TS_Pcode":"MMR013024","Township":"Kyauktan","Town_Pcode":"MMR013024702","Town":"Tadar","Town_MMR4":"တံတား","Longitude":96.53949,"Latitude":16.64788,"Level":"Other Town","Source":"GAD, Mar 2015","Remark":""}},{"type":"Feature","id":"mmr_pplp1_mimu250k.203","geometry":{"type":"Point","coordinates":[96.53019,24.99183]},"geometry_name":"the_geom","properties":{"SD_Pcode":"MMR001","State_Divi":"Kachin","D_Pcode":"MMR001D002","District":"Mohnyin","TS_Pcode":"MMR001007","Township":"Mohnyin","Town_Pcode":"MMR001007702","Town":"Hopin","Town_MMR4":"ဟိုပင်","Longitude":96.53019,"Latitude":24.99183,"Level":"Other Town","Source":"GAD, Mar 2015","Remark":""}},{"type":"Feature","id":"mmr_pplp1_mimu250k.204","geometry":{"type":"Point","coordinates":[96.52654,17.47538]},"geometry_name":"the_geom","properties":{"SD_Pcode":"MMR007","State_Divi":"Bago (East)","D_Pcode":"MMR007D001","District":"Bago","TS_Pcode":"MMR007001","Township":"Bago","Town_Pcode":"MMR007001702","Town":"Hpayargyi","Town_MMR4":"ဘုရားကြီး","Longitude":96.52654,"Latitude":17.47538,"Level":"Other Town","Source":"GAD, Mar 2015","Remark":""}},{"type":"Feature","id":"mmr_pplp1_mimu250k.205","geometry":{"type":"Point","coordinates":[96.52309,16.7586]},"geometry_name":"the_geom","properties":{"SD_Pcode":"MMR013","State_Divi":"Yangon","D_Pcode":"MMR013D003","District":"Yangon (South)","TS_Pcode":"MMR013025","Township":"Thongwa","Town_Pcode":"MMR013025701","Town":"Thongwa","Town_MMR4":"သုံးခွ","Longitude":96.52309,"Latitude":16.7586,"Level":"Main Town","Source":"GAD, Mar 2015","Remark":""}},{"type":"Feature","id":"mmr_pplp1_mimu250k.206","geometry":{"type":"Point","coordinates":[96.5054,22.92139]},"geometry_name":"the_geom","properties":{"SD_Pcode":"MMR010","State_Divi":"Mandalay","D_Pcode":"MMR010D002","District":"Pyinoolwin","TS_Pcode":"MMR010011","Township":"Mogoke","Town_Pcode":"MMR010011701","Town":"Mogoke","Town_MMR4":"မိုးကုတ်","Longitude":96.5054,"Latitude":22.92139,"Level":"Main Town","Source":"GAD, Mar 2015","Remark":""}},{"type":"Feature","id":"mmr_pplp1_mimu250k.207","geometry":{"type":"Point","coordinates":[96.4837587896245,18.84329759065388]},"geometry_name":"the_geom","properties":{"SD_Pcode":"MMR007","State_Divi":"Bago (East)","D_Pcode":"MMR007D002","District":"Taungoo","TS_Pcode":"MMR007014","Township":"Htantabin","Town_Pcode":"MMR007014701","Town":"Htantabin","Town_MMR4":"ထန်းတပင်","Longitude":96.4837587896245,"Latitude":18.843297590653883,"Level":"Main Town","Source":"GAD, Mar 2015","Remark":""}},{"type":"Feature","id":"mmr_pplp1_mimu250k.208","geometry":{"type":"Point","coordinates":[96.49218,18.3404]},"geometry_name":"the_geom","properties":{"SD_Pcode":"MMR007","State_Divi":"Bago (East)","D_Pcode":"MMR007D002","District":"Taungoo","TS_Pcode":"MMR007012","Township":"Phyu","Town_Pcode":"MMR007012702","Town":"Kanyutkwin","Town_MMR4":"ကညွတ်ကွင်း","Longitude":96.49218,"Latitude":18.3404,"Level":"Other Town","Source":"GAD, Mar 2015","Remark":""}},{"type":"Feature","id":"mmr_pplp1_mimu250k.209","geometry":{"type":"Point","coordinates":[96.48389,17.33583]},"geometry_name":"the_geom","properties":{"SD_Pcode":"MMR007","State_Divi":"Bago (East)","D_Pcode":"MMR007D001","District":"Bago","TS_Pcode":"MMR007001","Township":"Bago","Town_Pcode":"MMR007001701","Town":"Bago","Town_MMR4":"ပဲခူး","Longitude":96.48389,"Latitude":17.33583,"Level":"State/Region Capital","Source":"GAD, Mar 2015","Remark":""}},{"type":"Feature","id":"mmr_pplp1_mimu250k.210","geometry":{"type":"Point","coordinates":[96.46632,17.08967]},"geometry_name":"the_geom","properties":{"SD_Pcode":"MMR007","State_Divi":"Bago (East)","D_Pcode":"MMR007D001","District":"Bago","TS_Pcode":"MMR007003","Township":"Kawa","Town_Pcode":"MMR007003701","Town":"Kawa","Town_MMR4":"ကဝ","Longitude":96.46632,"Latitude":17.08967,"Level":"Main Town","Source":"GAD, Mar 2015","Remark":""}},{"type":"Feature","id":"mmr_pplp1_mimu250k.211","geometry":{"type":"Point","coordinates":[96.45634,22.01397]},"geometry_name":"the_geom","properties":{"SD_Pcode":"MMR010","State_Divi":"Mandalay","D_Pcode":"MMR010D002","District":"Pyinoolwin","TS_Pcode":"MMR010008","Township":"Pyinoolwin","Town_Pcode":"MMR010008701","Town":"Pyinoolwin","Town_MMR4":"ပြင်ဦးလွင်","Longitude":96.45634,"Latitude":22.01397,"Level":"District Capital","Source":"GAD, Mar 2015","Remark":""}},{"type":"Feature","id":"mmr_pplp1_mimu250k.212","geometry":{"type":"Point","coordinates":[96.44229,21.16282]},"geometry_name":"the_geom","properties":{"SD_Pcode":"MMR014","State_Divi":"Shan (South)","D_Pcode":"MMR014S001","District":"Danu Self-Administered Zone","TS_Pcode":"MMR014007","Township":"Ywangan","Town_Pcode":"MMR014007701","Town":"Ywangan","Town_MMR4":"ရွာငံ","Longitude":96.44229,"Latitude":21.16282,"Level":"Main Town","Source":"GAD, Mar 2015","Remark":""}},{"type":"Feature","id":"mmr_pplp1_mimu250k.213","geometry":{"type":"Point","coordinates":[96.43572,18.48438]},"geometry_name":"the_geom","properties":{"SD_Pcode":"MMR007","State_Divi":"Bago (East)","D_Pcode":"MMR007D002","District":"Taungoo","TS_Pcode":"MMR007012","Township":"Phyu","Town_Pcode":"MMR007012701","Town":"Phyu","Town_MMR4":"ဖြူး","Longitude":96.43572,"Latitude":18.48438,"Level":"Main Town","Source":"GAD, Mar 2015","Remark":""}},{"type":"Feature","id":"mmr_pplp1_mimu250k.214","geometry":{"type":"Point","coordinates":[96.43314,18.93953]},"geometry_name":"the_geom","properties":{"SD_Pcode":"MMR007","State_Divi":"Bago (East)","D_Pcode":"MMR007D002","District":"Taungoo","TS_Pcode":"MMR007009","Township":"Taungoo","Town_Pcode":"MMR007009701","Town":"Taungoo","Town_MMR4":"တောင်ငူ","Longitude":96.43314,"Latitude":18.93953,"Level":"District Capital","Source":"GAD, Mar 2015","Remark":""}},